zipcode,streetAddress,homeStatus,homeType,latitude,longitude,yearBuilt,lotAreaValue,lotAreaUnits,livingAreaValue,livingAreaUnitsShort,garageParkingCapacity,bedrooms,bathrooms,bathroomsFull,stories,flooring,foundationDetails,heating,cooling,fireplaceFeatures,sewer,roofType,taxAssessedValue,zestimate,rentZestimate,price-historypricePerSquareFoot,price,currency,
90049,11645 Montana Ave APT 229,RECENTLY_SOLD,CONDO,34.05639,-118.46599,1973,1.1479,Acres,855,sqft,2,1,1,1,None,"['Tile', 'Wood']","[]","['Baseboard']","['Wall/Window Unit(s)']","['Family Room']","['Public Sewer']",None,699000,708700,2999,,3050,USD,
90046,2316 Laurelmont Pl,RECENTLY_SOLD,HOME_TYPE_UNKNOWN,34.11305,-118.371925,None,1970,Square Feet,None,None,None,None,None,None,None,"[]","[]","[]","[]",None,None,None,437,None,9499,,2600,USD,
91406,6452 Woodley Ave #3,RECENTLY_SOLD,APARTMENT,34.1882,-118.483284,2006,None,sqft,1800,sqft,None,3,2.5,0,None,"['Tile']","[]","['Forced air']","['Central']",None,None,None,None,690500,2634,,3500,USD,
91406,6452 Woodley Ave UNIT 2,RECENTLY_SOLD,HOME_TYPE_UNKNOWN,34.1882,-118.483284,None,None,sqft,None,None,None,None,None,None,None,"[]","[]","[]","[]",None,None,None,None,565500,2167,,2500,USD,
90059,855 E 120th St #3,RECENTLY_SOLD,APARTMENT,33.924007,-118.25957,None,None,sqft,912,sqft,None,3,2,0,None,"[]","[]","[]","['None']",None,None,None,None,None,3174,,2750,USD,
90066,4040 Grand View Blvd UNIT 15,RECENTLY_SOLD,TOWNHOUSE,34.000374,-118.426735,1961,2.857001836547291,Acres,841,sqft,None,2,1.5,0,None,"['Other']","[]","['None', 'Forced air']","['Other']",None,None,Other,512017,736900,3997,,3100,USD,
91303,7305 Milwood Ave APT 3,RECENTLY_SOLD,CONDO,34.20305,-118.59442,1981,871,Square Feet,972,sqft,None,2,1,None,None,"[]","[]","['Other']","['Central']",None,None,None,105445,464800,3499,,2800,USD,
90046,1656 N Sierra Bonita Ave,RECENTLY_SOLD,APARTMENT,34.101433,-118.35382,None,None,sqft,None,None,None,1,1,0,None,"['Tile', 'Hardwood']","[]","['Forced air']","['Other']",None,None,None,None,591700,2958,,2850,USD,
91040,8701 Hillrose St,RECENTLY_SOLD,SINGLE_FAMILY,34.26433,-118.3224,1945,1.7539944903581268,Acres,1392,sqft,None,2,1.5,0,None,"[]","[]","[]","['None']",None,None,None,68036,759600,3781,,3600,USD,
91411,5654 Kester Ave #4,RECENTLY_SOLD,HOME_TYPE_UNKNOWN,34.17372,-118.45706,None,None,sqft,None,None,None,None,None,None,None,"[]","[]","[]","[]",None,None,None,None,None,2798,,2600,USD,
91325,17123 Roscoe Blvd UNIT 2,RECENTLY_SOLD,APARTMENT,34.22216,-118.50529,1971,7.4209825528007345,Acres,1368,sqft,None,3,2,0,None,"[]","[]","['Forced air']","['Central']",None,None,Other,169009,495600,3099,,3100,USD,
90065,3744 Parrish Ave,RECENTLY_SOLD,LOT,34.111366,-118.226395,None,7683,Square Feet,None,None,None,None,0,0,None,"[]","[]","[]","[]",None,None,None,26804,None,3249,,3000,USD,
91605,7920 Saint Clair Ave,RECENTLY_SOLD,SINGLE_FAMILY,34.214436,-118.399826,1948,7797,Square Feet,950,sqft,None,2,2,0,None,"[]","[]","[]","['None']",None,None,None,None,743900,2996,,3100,USD,
91405,14735 Runnymede St,RECENTLY_SOLD,SINGLE_FAMILY,34.205727,-118.45437,1940,None,sqft,1100,sqft,None,3,2,0,None,"['Tile', 'Laminate']","[]","['Electric', 'Gas']","['Central']",None,None,None,None,555200,3196,,3250,USD,
91356,18620 Hatteras St UNIT 266,RECENTLY_SOLD,CONDO,34.176365,-118.539314,1970,5.0142,Acres,911,sqft,2,2,2,2,1,"['Tile']","[]","['Central']","['Central Air']","['None']","['Public Sewer']",None,283816,381100,2400,,2300,USD,
90402,109 Chautauqua Blvd APT 14,RECENTLY_SOLD,CONDO,34.028748,-118.519325,1924,None,sqft,None,None,None,1,1,0,None,"['Tile', 'Carpet']","[]","['Wall']","['None']",None,None,None,None,None,6111,,2990,USD,
90044,732 W 97th St,RECENTLY_SOLD,SINGLE_FAMILY,33.947643,-118.28813,1927,3179,Square Feet,1000,sqft,None,3,1,0,None,"['Tile', 'Carpet', 'Laminate']","[]","['Wall', 'Gas']","['Wall']",None,None,Tile,279545,501300,3249,,2750,USD,
90035,1574 Glenville Dr,RECENTLY_SOLD,SINGLE_FAMILY,34.05046,-118.39292,1929,4024,Square Feet,800,sqft,None,1,1,0,None,"['Carpet', 'Hardwood']","[]","['Baseboard']","['None']",None,None,None,785333,955500,3599,,2745,USD,
90027,2409 Hyperion Ave,RECENTLY_SOLD,SINGLE_FAMILY,34.102795,-118.27335,1935,4764,Square Feet,600,sqft,None,2,1,0,None,"['Hardwood']","[]","['Forced air']","['Other']",None,None,None,663996,1030600,2258,,2800,USD,
90018,1805 W 35th St #1/2,RECENTLY_SOLD,HOME_TYPE_UNKNOWN,34.024887,-118.31221,None,None,sqft,None,None,None,None,None,None,None,"[]","[]","[]","[]",None,None,None,None,1057900,4472,,2000,USD,
91401,5653 Buffalo Ave,RECENTLY_SOLD,SINGLE_FAMILY,34.173088,-118.43031,None,None,sqft,1200,sqft,None,2,1,0,None,"['Hardwood']","[]","['Forced air']","['Other']",None,None,None,None,876800,2689,,2500,USD,
91316,5500 Lindley Ave UNIT 217,RECENTLY_SOLD,APARTMENT,34.17058,-118.52705,1979,0.929981634527089,Acres,1644,sqft,None,3,2,0,None,"['Carpet']","[]","['None', 'Forced air']","['None']",None,None,Other,455125,693700,4140,,3000,USD,
90031,3861 Manitou Ave,RECENTLY_SOLD,HOME_TYPE_UNKNOWN,34.072433,-118.197945,None,2962,Square Feet,None,None,None,None,None,None,None,"[]","[]","[]","[]",None,None,None,685,None,2900,,255,USD,
91423,14061 Milbank St APT 2,RECENTLY_SOLD,TOWNHOUSE,34.153187,-118.439606,1999,None,sqft,None,None,None,2,2.5,0,None,"['Tile', 'Hardwood']","[]","['None', 'Forced air']","['Central']",None,None,Other,None,688400,3001,,3295,USD,
91601,5738 Denny Ave,RECENTLY_SOLD,SINGLE_FAMILY,34.175194,-118.36451,1975,10018,Square Feet,1350,sqft,None,3,2,None,None,"[]","[]","['Other']","[]",None,None,None,462057,777600,1829,,1950,USD,
91411,14990 Victory Blvd UNIT 103,RECENTLY_SOLD,CONDO,34.186325,-118.45945,1976,1.3496,Acres,1136,sqft,1,2,2,2,None,"['Laminate']","[]","['Central']","['Central Air']","['Living Room']","['Public Sewer']",None,501330,546500,2850,,3000,USD,
90043,3405 W 75th St,RECENTLY_SOLD,SINGLE_FAMILY,33.97193,-118.33112,1947,4530,Square Feet,1000,sqft,None,2,1,0,None,"['Hardwood']","[]","['Forced air']","['None']",None,None,None,None,418400,1597,,2850,USD,
90004,105 S Mariposa Ave #510,RECENTLY_SOLD,CONDO,34.072342,-118.2997,2017,0.46965105601469237,Acres,1087,sqft,None,2,2,0,None,"['Hardwood']","[]","['Forced air']","['Central']",None,None,None,693775,726300,3200,,3200,USD,
90019,1436 S Ridgeley Dr,RECENTLY_SOLD,SINGLE_FAMILY,34.04731,-118.35609,1995,None,sqft,834,sqft,None,2,1,1,None,"['Laminate', 'Slate']","[]","['Wall', 'Gas']","['Wall']",None,None,None,None,None,None,,2975,USD,
91367,6041 Variel Ave #624,RECENTLY_SOLD,APARTMENT,34.180298,-118.593475,None,None,sqft,1030,sqft,None,2,2,0,None,"['Linoleum / Vinyl']","[]","['Forced air']","['Other']",None,None,None,None,None,3599,,3610,USD,
91402,8150 Hazeltine Ave,RECENTLY_SOLD,SINGLE_FAMILY,34.219475,-118.43969,1949,5668,Square Feet,768,sqft,None,2,1,None,None,"[]","[]","['Wall']","[]",None,None,None,335602,641400,3785,,3200,USD,
91405,13941 Sherman Way UNIT 311,RECENTLY_SOLD,CONDO,34.20155,-118.437004,2006,0.5699035812672176,Acres,1560,sqft,None,3,3,3,None,"['Laminate']","[]","['Forced air']","['Central']",None,None,None,606900,676700,3551,,3600,USD,
90042,1011 San Pascual Ave,RECENTLY_SOLD,MULTI_FAMILY,34.121147,-118.168976,1931,4324,Square Feet,700,sqft,None,1,1,0,None,"[]","[]","['Wall']","['None']",None,None,None,637042,612000,2444,,2000,USD,
91042,10432 Samoa Ave,RECENTLY_SOLD,SINGLE_FAMILY,34.25881,-118.286606,1950,8180,Square Feet,1596,sqft,None,3,2,None,None,"[]","[]","['Wall']","[]",None,None,None,808860,917600,3175,,3250,USD,
91042,10032 Commerce Ave #2,RECENTLY_SOLD,HOME_TYPE_UNKNOWN,34.251167,-118.28843,None,None,sqft,None,None,None,None,None,None,None,"[]","[]","[]","[]",None,None,None,None,None,None,,3100,USD,
90026,1896 Lucile Ave,RECENTLY_SOLD,HOME_TYPE_UNKNOWN,34.09584,-118.27387,None,6191,Square Feet,None,None,None,None,None,None,None,"[]","[]","[]","[]",None,None,None,184150,None,3998,,1000,USD,
91344,17237 Kingsbury St,RECENTLY_SOLD,SINGLE_FAMILY,34.263737,-118.51012,1959,4007,Square Feet,800,sqft,None,2,2,0,None,"['Tile', 'Laminate']","[]","['Forced air']","['Other']",None,None,Other,None,672400,3106,,3200,USD,
91356,18555 Collins St APT C11,RECENTLY_SOLD,CONDO,34.175034,-118.5378,1964,5.9307,Acres,979,sqft,1,2,2,2,None,None,"[]","['Central']","['Central Air']","['None']","['Public Sewer']",None,408000,478700,2500,,2500,USD,
91335,7317 White Oak Ave,RECENTLY_SOLD,SINGLE_FAMILY,34.203274,-118.5186,1951,5500,Acres,512,sqft,None,2,1,None,None,None,"[]",None,None,None,None,None,None,542000,2500,,2500,USD,
90013,312 W 5th St APT 208,RECENTLY_SOLD,CONDO,34.048035,-118.25125,1923,0.6263774104683195,Acres,740,sqft,1,1,1,1,11,None,"[]",None,"['Electric', 'Wall/Window Unit(s)']","['None']","['Public Sewer']",None,406980,487800,1999,,2700,USD,
91601,10740 Hatteras St,RECENTLY_SOLD,APARTMENT,34.175793,-118.365234,None,None,sqft,500,sqft,None,1,1,0,None,"[]","[]","[]","['None']",None,None,None,None,None,3345,,2100,USD,
91364,5303 Lubao Ave,RECENTLY_SOLD,SINGLE_FAMILY,34.1662,-118.56726,1953,0.3696280991735537,Acres,1662,sqft,None,3,3,2,None,"[]","[]","['Other', 'Gas']","['Central']",None,None,None,711131,1329800,5728,,5500,USD,
91325,9035 Rathburn Ave,RECENTLY_SOLD,SINGLE_FAMILY,34.234776,-118.5331,1953,8100,Square Feet,2000,sqft,None,3,2,0,None,"['Tile', 'Carpet', 'Hardwood']","[]","['Forced air', 'Gas']","['Central']",None,None,Composition,817813,1097200,4605,,4200,USD,
91352,11243 Valerio St,RECENTLY_SOLD,SINGLE_FAMILY,34.20509,-118.37619,1951,6721.308,Square Feet,1833,sqft,None,4,2,2,1,"['Hardwood', 'Other', 'Tile']","[]","['Central']","['Central Air']","['Living Room']",None,None,550716,876200,3799,,3800,USD,
90293,6304 Vista Del Mar,RECENTLY_SOLD,TOWNHOUSE,33.962444,-118.45085,1964,2400,Square Feet,2000,sqft,None,3,2.5,0,None,"['Hardwood']","[]","['Forced air', 'Wall', 'Gas']","['None']",None,None,Other,1260732,2087200,7186,,5100,USD,
91335,18909 Adolfo Ave,RECENTLY_SOLD,SINGLE_FAMILY,34.180946,-118.545364,2007,5662,Square Feet,2891,sqft,None,4,4,0,None,"['Hardwood']","[]","['None', 'Other']","['Central']",None,None,Other,892410,1264700,7167,,5000,USD,
90049,130 S Sepulveda Blvd UNIT 107,RECENTLY_SOLD,APARTMENT,34.071766,-118.46459,None,None,sqft,1160,sqft,None,2,2,0,None,"['Hardwood']","[]","['Forced air']","['Other']",None,None,None,None,None,6195,,5195,USD,
90049,130 S Sepulveda Blvd UNIT 215,RECENTLY_SOLD,APARTMENT,34.071766,-118.46459,None,None,sqft,1115,sqft,None,2,2,0,None,"['Tile', 'Hardwood']","[]","['Gas']","['Central']",None,None,None,None,None,5995,,5495,USD,
91423,13921 Hesby St,RECENTLY_SOLD,SINGLE_FAMILY,34.162205,-118.43639,1948,6041,Square Feet,2115,sqft,None,4,2,0,None,"['Hardwood']","[]","['Forced air']","['Other']",None,None,None,308630,1053800,6160,,5500,USD,
91402,13863 Burton St,RECENTLY_SOLD,SINGLE_FAMILY,34.22093,-118.43565,1950,5884,Square Feet,2584,sqft,None,5,3,None,None,"[]","[]","['Wall']","[]",None,None,None,405253,908800,6646,,7000,USD,
90019,1502 Crenshaw Blvd,RECENTLY_SOLD,TOWNHOUSE,34.045593,-118.3275,2023,7100,Square Feet,1600,sqft,None,5,4,1,None,"[]","[]","['Wall', 'Gas']","['Wall']",None,None,None,1377000,1692200,4773,,4900,USD,
90064,2327 Selby Ave,RECENTLY_SOLD,SINGLE_FAMILY,34.04314,-118.42742,1929,6750,Square Feet,1671,sqft,None,3,1.75,None,None,"[]","[]","['Other']","['Central']",None,None,None,1273604,1512500,3565,,3650,USD,
90039,2341 Teviot St,RECENTLY_SOLD,SINGLE_FAMILY,34.0985,-118.258385,1957,7840,Square Feet,1144,sqft,None,3,1,0,None,"['Tile', 'Laminate']","[]","['Forced air', 'Electric', 'Gas']","['Other']",None,None,Composition,1219365,None,3963,,4500,USD,
90077,10320 Caribou Ln,RECENTLY_SOLD,HOME_TYPE_UNKNOWN,34.104717,-118.44378,None,5040,Square Feet,None,None,None,None,None,None,None,"[]","[]","[]","[]",None,None,None,24642,None,7699,,4000,USD,
91343,16050 Knapp St,RECENTLY_SOLD,SINGLE_FAMILY,34.238087,-118.48253,1958,7579,Square Feet,1696,sqft,None,3,2,0,None,"['Hardwood']","[]","['Forced air', 'Other']","['Other']",None,None,Other,539692,955700,4200,,4000,USD,
90068,3370 Troy Dr,RECENTLY_SOLD,SINGLE_FAMILY,34.133163,-118.345566,1955,4532,Square Feet,2500,sqft,None,3,2.5,0,None,"['Tile', 'Carpet', 'Hardwood']","[]","['Forced air']","['Central']",None,None,Other,1060427,1527000,7767,,5800,USD,
90034,3632 Keystone Ave #302-102,RECENTLY_SOLD,APARTMENT,34.023106,-118.40859,None,None,sqft,1477,sqft,None,3,2.5,0,None,"['Hardwood']","[]","['Forced air']","['Central']",None,None,None,None,None,5048,,4999,USD,
91307,22825 Runnymede St,RECENTLY_SOLD,SINGLE_FAMILY,34.20524,-118.62441,1959,7801,Square Feet,1450,sqft,None,3,2,0,None,"['Hardwood']","[]","['Forced air']","['Other']",None,None,None,648680,967900,3990,,4000,USD,
90065,3939 Ackerman Dr,RECENTLY_SOLD,SINGLE_FAMILY,34.11747,-118.226074,1978,5201,Square Feet,1566,sqft,None,3,3,0,None,"['Carpet']","[]","['Other']","['Central']",None,None,None,803768,1176000,4800,,4350,USD,
91504,7941 Via Latina,RECENTLY_SOLD,CONDO,34.216125,-118.33574,1978,8.027089072543617,Acres,1602,sqft,None,3,2,1,None,"[]","[]","['Other']","['Central']",None,None,None,533489,855100,4152,,4150,USD,
90049,130 S Sepulveda Blvd UNIT 306,RECENTLY_SOLD,APARTMENT,34.071766,-118.46459,None,None,sqft,1080,sqft,None,2,2,0,None,"['Tile', 'Hardwood']","[]","['Forced air', 'Gas']","['Central']",None,None,None,None,None,5795,,5795,USD,
91605,7940 Atoll Ave,RECENTLY_SOLD,SINGLE_FAMILY,34.214058,-118.417915,1954,0.46379706152433425,Acres,3481,sqft,None,5,3,3,None,"[]","[]","['Forced air']","['Central']","['Family Room']","['Unknown']",None,1222518,1483200,5276,,6500,USD,
90025,1813 Thayer Ave UNIT E,RECENTLY_SOLD,APARTMENT,34.054832,-118.426575,2008,5747,Square Feet,1870,sqft,None,3,2.5,0,None,"['Hardwood']","[]","['Forced air']","['Other']",None,None,None,1156537,1395800,5622,,5600,USD,
91342,10410 Jimenez St,RECENTLY_SOLD,SINGLE_FAMILY,34.27514,-118.356705,1958,0.3223370064279155,Acres,1783,sqft,None,4,3,0,None,"['Hardwood']","[]","['Forced air']","['Other']",None,None,None,329972,856800,4626,,4300,USD,
91307,22710 Saticoy St,RECENTLY_SOLD,SINGLE_FAMILY,34.207973,-118.62165,0,8460,Acres,1372,sqft,None,4,2,None,None,None,"[]",None,None,None,None,None,652800,1284200,3998,,3900,USD,
91311,10451 Larwin Ave UNIT 3,RECENTLY_SOLD,TOWNHOUSE,34.26065,-118.61422,1972,1.3042699724517905,Acres,2138,sqft,None,4,3,3,None,"['Tile', 'Carpet', 'Hardwood']","[]","['Forced air']","['Central']",None,None,None,568692,876800,4250,,3700,USD,
21550,Fawn Dr,RECENTLY_SOLD,HOME_TYPE_UNKNOWN,34.001945,-118.43121,None,0.9199954086317723,Acres,None,None,None,None,None,None,None,"[]","[]","[]","[]",None,None,None,5300,None,799,,5750,USD,
91367,23116 Leonora Dr,RECENTLY_SOLD,SINGLE_FAMILY,34.164062,-118.629776,1954,6002,Square Feet,1320,sqft,None,3,2,0,None,"['Tile', 'Hardwood']","[]","['Forced air']","['Central']",None,None,None,809403,1043400,4850,,3995,USD,
91607,5849 Goodland Ave,RECENTLY_SOLD,SINGLE_FAMILY,34.177185,-118.41201,1953,6847.632,Square Feet,2100,sqft,None,3,3,3,1,"['Tile', 'Hardwood']","[]","['Central']","['Central Air']","['Den', 'Living Room']","['In Street']",None,784359,1361700,5899,,6500,USD,
91345,14377 Germain St,RECENTLY_SOLD,SINGLE_FAMILY,34.263676,-118.44668,1955,7500,Acres,1766,sqft,None,3,2,0,None,"['Hardwood']","[]","['Forced air']","['Other']",None,None,None,856800,920800,4140,,4000,USD,
90094,5625 Crescent Pkwy #128,RECENTLY_SOLD,HOME_TYPE_UNKNOWN,33.972084,-118.42935,None,None,sqft,None,None,None,None,None,None,None,"[]","[]","[]","[]",None,None,None,None,None,4749,,4950,USD,
91343,14875 Novice St,RECENTLY_SOLD,SINGLE_FAMILY,34.24445,-118.45782,1957,0.27089072543618,Acres,1588,sqft,None,4,2,2,None,"['Carpet', 'Hardwood']","[]","['Forced air', 'Gas']","[]","['Living Room']","['Public Sewer']",Composition,609681,902700,4200,,4550,USD,
90042,742 Onarga Ave,RECENTLY_SOLD,SINGLE_FAMILY,34.12828,-118.18987,1954,4804,Square Feet,1728,sqft,None,4,2,2,None,"[]","[]","['Wall']","[]",None,"['In', 'Connected and Paid']",None,930290,1362300,5500,,5000,USD,
90046,857 N Hayworth Ave #303,RECENTLY_SOLD,HOME_TYPE_UNKNOWN,34.087044,-118.36303,None,None,sqft,None,None,None,None,None,None,None,"[]","[]","[]","[]",None,None,None,None,1111900,4743,,5495,USD,
90016,2018 Hillcrest Dr,RECENTLY_SOLD,CONDO,34.03757,-118.33931,2015,6600,Square Feet,2200,sqft,None,4,3.5,0,None,"['Tile', 'Hardwood']","[]","['Forced air', 'Other']","['Central']",None,None,None,864325,1115000,5464,,5700,USD,
91606,6545 Coldwater Canyon Ave,RECENTLY_SOLD,SINGLE_FAMILY,34.189777,-118.414116,1947,6368.472,Square Feet,1841,sqft,None,3,2,1,1,"['Carpet', 'Tile', 'Hardwood', 'Mixed']","[]","['Wall']","['None']","['Living Room']",None,None,295735,789000,4044,,5000,USD,
90049,130 S Sepulveda Blvd UNIT 108,RECENTLY_SOLD,APARTMENT,34.071766,-118.46459,None,None,sqft,1100,sqft,None,2,2,0,None,"[]","[]","['Forced air']","['Other']",None,None,None,None,None,5995,,5295,USD,
91343,9540 Debra Ave,RECENTLY_SOLD,SINGLE_FAMILY,34.244335,-118.4896,1962,9063,Square Feet,1508,sqft,2,4,3,1,None,None,"[]","['Central']","['Central Air']","['Living Room']","['Public Sewer']",None,738683,990900,4377,,6500,USD,
90019,1500 Crenshaw Blvd,RECENTLY_SOLD,TOWNHOUSE,34.045708,-118.327675,2023,None,sqft,1600,sqft,None,5,5,1,None,"[]","[]","['Wall']","['Wall']",None,None,None,None,1307300,4685,,4950,USD,
91311,10244 Cozycroft Ave,RECENTLY_SOLD,SINGLE_FAMILY,34.25665,-118.58157,1969,8898,Square Feet,2351,sqft,None,4,3,None,None,"[]","[]","['Other']","['Central']",None,None,None,448961,1027900,5175,,4995,USD,
90045,6531 W 85th St,RECENTLY_SOLD,SINGLE_FAMILY,33.9615,-118.402756,1943,6088,Square Feet,1250,sqft,None,2,1,1,None,"[]","[]","['Forced air', 'Gas']","['Central']",None,None,Composition,292819,1001600,4027,,4900,USD,
90049,130 S Sepulveda Blvd UNIT 203,RECENTLY_SOLD,APARTMENT,34.071766,-118.46459,None,None,sqft,1080,sqft,None,2,2,0,None,"['Tile', 'Hardwood']","[]","['Forced air', 'Gas']","['Central']",None,None,None,None,None,5795,,5395,USD,
90065,616 Beech St,RECENTLY_SOLD,LOT,34.09353,-118.21873,None,4743.684,Square Feet,None,None,None,None,None,None,None,None,"[]",None,None,None,None,None,None,None,2875,,45000,USD,
90046,8365 Wyndham Rd,RECENTLY_SOLD,LOT,34.111324,-118.37473,None,5235.912,Square Feet,None,None,None,None,None,None,None,None,"[]",None,None,None,None,None,30176,None,10499,,32500,USD,
90065,2556 El Rosa Dr #234,RECENTLY_SOLD,LOT,34.11398,-118.23076,None,5345,Square Feet,None,None,None,None,None,None,None,None,"[]",None,None,None,None,None,None,None,None,,60000,USD,
91601,5706 Fair Ave APT 200,RECENTLY_SOLD,CONDO,34.17417,-118.37404,1981,880,Square Feet,900,sqft,None,2,1,1,None,"['Laminate']","[]","['Forced air', 'Gas']","['Central']",None,None,Other,443210,455400,2852,,55000,USD,
90272,434 Wynola St,RECENTLY_SOLD,SINGLE_FAMILY,34.041306,-118.53725,1947,7559,Square Feet,2508,sqft,None,4,3,None,None,"[]","[]","['Other']","[]",None,None,None,193168,2526700,12995,,9500,USD,
91607,12527 Emelita St,RECENTLY_SOLD,SINGLE_FAMILY,34.1769,-118.406296,1947,7900,Square Feet,2323,sqft,2,4,4,4,1,"['Wood']","[]","['Central']","['Central Air']","['Living Room']","['Public Sewer']",None,1601400,1703100,6768,,7499,USD,
91607,12024 Califa St,RECENTLY_SOLD,SINGLE_FAMILY,34.17703,-118.39519,1943,10201,Square Feet,1840,sqft,None,4,3,0,None,"['Hardwood']","[]","['None', 'Forced air']","['Other']",None,None,Composition,615007,1279600,5999,,50527,USD,
90046,8360 W Utica Dr,RECENTLY_SOLD,LOT,34.10762,-118.372406,None,8200,Square Feet,None,None,None,None,None,None,None,None,"[]",None,None,None,None,None,None,None,None,,60000,USD,
90031,2355 Coral St,RECENTLY_SOLD,LOT,34.073685,-118.199814,None,4138.2,Square Feet,None,None,None,None,None,None,None,None,"[]",None,None,None,None,None,28090,None,2850,,42000,USD,
91304,8542 N Hillcroft Dr #84,RECENTLY_SOLD,LOT,34.22654,-118.6512,None,6533,Square Feet,None,None,None,None,None,None,None,None,"[]",None,None,None,None,None,None,None,None,,57000,USD,
91304,8540 Hillcroft Dr,RECENTLY_SOLD,HOME_TYPE_UNKNOWN,34.226517,-118.65126,None,6531,Square Feet,None,None,None,None,None,None,None,"[]","[]","[]","[]",None,None,None,59734,None,2500,,57000,USD,
91356,18307 Burbank Blvd UNIT 7,RECENTLY_SOLD,CONDO,34.17324,-118.531746,1970,5.407438016528926,Acres,707,sqft,None,1,1,None,None,"[]","[]","['Other']","['Central']",None,None,None,252296,334400,1998,,8810,USD,
90046,8354 Utica Dr,RECENTLY_SOLD,LOT,34.1077,-118.37242,None,3249.576,Square Feet,None,None,None,None,None,None,None,None,"[]",None,None,None,"['None']",None,23100,None,7199,,20000,USD,
90005,620 S Gramercy Pl APT 135,RECENTLY_SOLD,CONDO,34.062965,-118.31257,1990,1.1817033976124884,Acres,942,sqft,None,2,2,None,None,"[]","[]","['Other']","['Central']",None,None,None,628000,671000,2762,,60000,USD,
90047,1726 W 70th St,RECENTLY_SOLD,SINGLE_FAMILY,33.97594,-118.30772,1925,5257,Square Feet,800,sqft,None,2,1,1,None,"['Tile', 'Carpet', 'Linoleum / Vinyl']","[]","['Forced air', 'Gas']","['Central']",None,"['Public Sewer']",Composition,557653,688400,2673,,50000,USD,
90210,10100 Angelo Cir,RECENTLY_SOLD,SINGLE_FAMILY,34.08874,-118.43005,2009,0.2574380165289256,Acres,6425,sqft,None,5,7,0,None,"['Tile']","[]","['None', 'Other']","['Central']",None,None,Other,6914195,37000,31461,,36000,USD,
90065,3621 Glenalbyn Dr,RECENTLY_SOLD,HOME_TYPE_UNKNOWN,34.09309,-118.21798,None,3099,Square Feet,None,None,None,None,None,None,None,"[]","[]","[]","[]",None,None,None,1377,None,2875,,19500,USD,
90046,839 N Gardner St,RECENTLY_SOLD,SINGLE_FAMILY,34.08645,-118.35354,2017,6503,Square Feet,5083,sqft,None,5,6,0,None,"['Tile', 'Hardwood']","[]","['Forced air', 'Other', 'Gas']","['Central']",None,None,Composition,3679121,4312600,16437,,25500,USD,
90013,460 S Spring St APT 510,RECENTLY_SOLD,CONDO,34.047474,-118.249306,1912,0.7067722681359045,Acres,810,sqft,None,1,1,1,None,"['Tile', 'Hardwood']","[]","['None', 'Other']","['Central']",None,None,Other,140000,506100,2557,,20000,USD,
90210,1957 Coldwater Canyon Dr,RECENTLY_SOLD,SINGLE_FAMILY,34.106735,-118.40582,1956,10589,Square Feet,3707,sqft,None,4,5,4,None,"['Tile', 'Hardwood']","[]","['None', 'Forced air']","['Central']",None,None,Other,4039288,None,16821,,15000,USD,
90049,439 S Bundy Dr,RECENTLY_SOLD,SINGLE_FAMILY,34.05465,-118.475784,1925,7000.092,Square Feet,2000,sqft,None,3,3,3,1,"['Tile', 'Hardwood', 'Mixed']","[]","['Central']","['Central Air']","['Living Room', 'Patio']",None,None,2219900,2962400,9887,,13000,USD,
90031,3106 Lincoln Park Ave,RECENTLY_SOLD,LOT,34.081738,-118.202324,None,0.33000459136822774,Acres,None,None,None,None,None,None,None,None,"[]",None,None,None,"['None - See Remarks']",None,71085,None,3017,,45000,USD,
90046,8353 Wyndham Rd,RECENTLY_SOLD,LOT,34.111,-118.37479,None,5645.376,Square Feet,None,None,None,None,None,None,None,None,"[]",None,None,None,None,None,30176,None,10499,,32500,USD,
91604,4144 Colfax Ave,RECENTLY_SOLD,SINGLE_FAMILY,34.144024,-118.38722,1988,6751,Square Feet,2894,sqft,None,4,6,0,None,"['Carpet']","[]","['central']","['Central']",None,None,None,928892,2068200,12632,,9000,USD,
91042,6346 Sister Elsie Dr #496,RECENTLY_SOLD,LOT,34.252296,-118.26977,None,6205,Square Feet,None,None,None,None,None,None,None,None,"[]",None,None,None,None,None,None,None,None,,55000,USD,
91042,0 Elsie Dr #575,RECENTLY_SOLD,LOT,34.253185,-118.265656,None,0.30707070707070705,Acres,None,None,None,None,None,None,None,None,"[]",None,None,None,None,None,None,None,None,,14800,USD,
90065,2556 El Rosa Dr,RECENTLY_SOLD,HOME_TYPE_UNKNOWN,34.114094,-118.2307,None,5345,Square Feet,None,None,None,None,None,None,None,"[]","[]","[]","[]",None,None,None,32010,None,3249,,60000,USD,
90032,2840 Paradise Dr,RECENTLY_SOLD,HOME_TYPE_UNKNOWN,34.08027,-118.19724,None,4742,Square Feet,None,None,None,None,None,None,None,"[]","[]","[]","[]",None,None,None,62424,None,2895,,65000,USD,
91356,4172 Ellenita Ave,RECENTLY_SOLD,SINGLE_FAMILY,34.14645,-118.5593,1968,0.5012626262626263,Acres,3041,sqft,None,5,3,None,None,"[]","[]","['Other']","['Central']",None,None,None,1778000,1948400,10189,,7500,USD,
90057,216 S Lake St,FOR_SALE,SINGLE_FAMILY,34.065617,-118.27194,1903,6098.4,Square Feet,3323,sqft,None,9,4,4,None,None,"[]",None,None,None,None,None,None,28700,9869,,1095,USD,
90272,1798 Palisades Dr,RECENTLY_SOLD,TOWNHOUSE,34.07553,-118.55938,1978,6.519995408631773,Acres,1983,sqft,None,3,3,0,None,"['Tile']","[]","['Forced air']","['Central']",None,None,None,1451357,1301000,6134,,7400,USD,
90291,691 Mildred Ave APT 1,RECENTLY_SOLD,SINGLE_FAMILY,33.987495,-118.45976,2000,5279,Square Feet,2360,sqft,None,3,3,2,None,"['Tile', 'Hardwood']","[]","['Forced air']","['Central']",None,None,None,1237452,1957700,11000,,9000,USD,
91602,4455 Colfax Ave,RECENTLY_SOLD,TOWNHOUSE,34.151997,-118.38795,2022,None,sqft,1500,sqft,None,4,4,4,None,"['Hardwood']","[]","['Forced air']","['Other']",None,None,None,None,1142000,4228,,7000,USD,
90065,0 Beech & Glenalbyn #118,RECENTLY_SOLD,LOT,34.093056,-118.21794,None,2884,Square Feet,None,None,None,None,None,None,None,None,"[]",None,None,None,None,None,None,None,None,,19500,USD,
90065,0 Beech & Glenalbyn #117,RECENTLY_SOLD,LOT,34.093082,-118.21848,None,3099,Square Feet,None,None,None,None,None,None,None,None,"[]",None,None,None,None,None,None,None,None,,19500,USD,
91042,0 Tranquil Dr #163,RECENTLY_SOLD,LOT,34.240204,-118.29381,None,4692,Square Feet,None,None,None,None,None,None,None,None,"[]",None,None,None,None,None,None,None,None,,25500,USD,
90044,948 W 61st St,RECENTLY_SOLD,MULTI_FAMILY,33.984337,-118.29064,2008,5202,Square Feet,844,sqft,None,2,1,None,None,"[]","[]","[]","[]",None,None,None,909309,44900,2585,,44500,USD,
91042,6346 Sister Elsie Dr,RECENTLY_SOLD,HOME_TYPE_UNKNOWN,34.252415,-118.26984,None,6205,Square Feet,None,None,None,None,None,None,None,"[]","[]","[]","[]",None,None,None,33292,None,2900,,55000,USD,
90293,8234 Cabora Dr,RECENTLY_SOLD,HOME_TYPE_UNKNOWN,33.96197,-118.44254,None,3466,Square Feet,None,None,None,None,None,None,None,"[]","[]","[]","[]",None,None,None,8446,None,3990,,25000,USD,
91042,0 Haines Canyon Ave #3,RECENTLY_SOLD,LOT,34.259136,-118.27318,None,2.1703,Acres,None,None,None,None,None,None,None,None,"[]",None,None,None,"['None']",None,None,None,None,,26000,USD,
91307,7308 Elmsbury Ln,RECENTLY_SOLD,SINGLE_FAMILY,34.20475,-118.65558,1987,7502,Square Feet,2471,sqft,3,4,3,2,None,"['Stone', 'Tile', 'Wood']","[]","['Central']","['Central Air', 'Wall/Window Unit(s)']","['Living Room', 'Gas']","['Public Sewer']",Concrete,Tile,1244400,1323400,4929,,8300,USD,
91304,24303 Woolsey Cyn #121,RECENTLY_SOLD,MANUFACTURED,34.23893,-118.65743,1979,None,sqft,1776,sqft,0,3,2,2,None,"['Wood']","['Pillar/Post/Pier']","['Electric', 'Central']","['Central Air']",None,None,None,None,146800,624,,145000,USD,
91342,12301 San Fernando Rd #809,RECENTLY_SOLD,MANUFACTURED,34.29345,-118.45336,2016,None,sqft,432,sqft,0,2,1,1,1,None,"['See Remarks']","['Central']","['Central Air']",None,"['Public Sewer']",None,None,96600,367,,95000,USD,
91342,13120 Bradley Ave #30,RECENTLY_SOLD,MANUFACTURED,34.308903,-118.46253,1978,None,sqft,704,sqft,0,2,1,1,1,"['Carpet', 'Tile']","[]",None,None,None,"['Public Sewer']",Composition,None,145700,553,,143000,USD,
90032,1 La Calandria Way #433,RECENTLY_SOLD,LOT,34.079517,-118.17663,None,4896,Square Feet,None,None,None,None,None,None,None,None,"[]",None,None,None,None,None,None,None,None,,65000,USD,
91335,6545 Wilbur Ave SPACE 25,RECENTLY_SOLD,MANUFACTURED,34.189278,-118.546,1970,None,sqft,800,sqft,2,2,1,1,1,None,"[]","['Floor Furnace']","['Evaporative Cooling']",None,"['Public Sewer']",None,None,137000,483,,135000,USD,
91405,7560 Woodman Pl SPACE 52,RECENTLY_SOLD,MANUFACTURED,34.208103,-118.44861,2015,None,sqft,680,sqft,1,2,1,1,1,None,"[]",None,None,None,"['Public Sewer']",None,43824,142000,536,,138000,USD,
91304,24303 Woolsey Cyn #44,RECENTLY_SOLD,MANUFACTURED,34.238583,-118.65508,None,None,sqft,1904,sqft,0,3,2,2,None,"['Laminate', 'Wood']","['Pillar/Post/Pier']","['Electric', 'Central']","['Central Air']",None,None,None,None,112300,428,,110000,USD,
90032,4388 W Rose Hill Dr,RECENTLY_SOLD,HOME_TYPE_UNKNOWN,34.08084,-118.19517,None,4786,Square Feet,None,None,None,None,None,None,None,"[]","[]","[]","[]",None,None,None,68000,None,2963,,97000,USD,
90032,5000 Ladd Ave,RECENTLY_SOLD,HOME_TYPE_UNKNOWN,34.074802,-118.177605,None,8623,Square Feet,None,None,None,None,None,None,None,"[]","[]","[]","[]",None,None,None,147164,None,2850,,150000,USD,
90032,4951 La Calandria Dr,RECENTLY_SOLD,LOT,34.073406,-118.1779,None,6436,Square Feet,None,None,None,None,None,None,None,None,"[]",None,None,None,None,None,41235,None,2900,,125000,USD,
91311,21001 Plummer St SPACE 71,RECENTLY_SOLD,MANUFACTURED,34.243763,-118.59125,1969,None,sqft,648,sqft,0,2,1,1,1,"['Tile', 'Wood']","['Raised']","['Forced Air', 'Natural Gas']","['Wall/Window Unit(s)']",None,"['Public Sewer']",Flat,None,122400,496,,122000,USD,
91352,10159 Colwell Dr,RECENTLY_SOLD,SINGLE_FAMILY,34.213215,-118.35201,1943,5769,Square Feet,1154,sqft,2,3,1,1,1,"['Carpet', 'Vinyl', 'Wood']","['Raised']","['Floor Furnace']","['None']","['None']","['Public Sewer']",Composition,719100,None,4235,,124000,USD,
90065,3935 Glenalbyn Dr,RECENTLY_SOLD,LOT,34.09362,-118.21328,None,4739,Square Feet,None,None,None,None,0,None,None,None,"[]",None,None,None,None,None,76554,None,2800,,107500,USD,
90015,1421 Albany St,RECENTLY_SOLD,SINGLE_FAMILY,34.04121,-118.27567,1903,6011,Square Feet,2051,sqft,None,0,0,0,None,"[]","[]","['Electric']","[]",None,None,None,551843,705100,1664,,66500,USD,
91343,8320 Noble Ave,RECENTLY_SOLD,SINGLE_FAMILY,34.222225,-118.46083,1954,7669,Square Feet,1218,sqft,None,3,2,None,None,"[]","[]","['Other']","[]",None,None,None,258587,586300,3766,,75000,USD,
90062,1638 W 51st St,RECENTLY_SOLD,SINGLE_FAMILY,33.99663,-118.30811,1913,5227,Square Feet,1000,sqft,None,2,1,0,None,"[]","[]","['Wall']","[]",None,None,None,248547,415700,3051,,99000,USD,
90065,3607 Parrish Ave #6,RECENTLY_SOLD,LOT,34.110058,-118.228745,None,4400,Square Feet,None,None,None,None,None,None,None,None,"[]",None,None,None,None,None,None,None,None,,85000,USD,
91304,24303 Woolsey Cyn #80,RECENTLY_SOLD,MANUFACTURED,34.23974,-118.65455,None,3500,Square Feet,1904,sqft,0,2,2,2,None,"['Carpet']","[]","['Electric', 'Central']",None,None,None,None,None,125400,505,,125000,USD,
91605,8250 Lankershim Blvd,RECENTLY_SOLD,MANUFACTURED,34.220783,-118.38796,1990,1200,Square Feet,750,sqft,0,2,2,2,1,"['Laminate']","[]","['Radiant']","['Whole House Fan']",None,"['Public Sewer']",None,17860,135600,505,,135000,USD,
90731,3800 Bluff Pl,RECENTLY_SOLD,LOT,33.709644,-118.28612,None,4310,Square Feet,None,None,None,None,0,None,None,"[]","[]","[]","[]",None,None,None,520574,None,2700,,150000,USD,
91405,7560 Woodman Pl SPACE 65,RECENTLY_SOLD,MANUFACTURED,34.20636,-118.42857,1989,None,sqft,768,sqft,0,2,1,1,1,None,"[]","['Floor Furnace']",None,None,"['Unknown']",None,20897,141000,532,,137500,USD,
90046,8509 Nash Dr,RECENTLY_SOLD,HOME_TYPE_UNKNOWN,34.10684,-118.376045,None,3288,Square Feet,None,None,None,None,None,None,None,"[]","[]","[]","[]",None,None,None,83640,None,8500,,146000,USD,
90065,1553 Cliff Dr,RECENTLY_SOLD,LOT,34.100372,-118.22775,None,7274.52,Square Feet,None,None,None,None,None,None,None,None,"[]",None,None,None,"['In Street']",None,124848,None,3249,,119500,USD,
91040,10711 Sherman Grove Ave SPACE 36,RECENTLY_SOLD,MANUFACTURED,34.263798,-118.321655,1963,None,sqft,None,None,0,2,2,1,1,"['Carpet', 'Vinyl']","[]",None,None,None,"['Public Sewer']",None,13591,77000,293,,76000,USD,
90032,4951 La Calandria Dr #594,RECENTLY_SOLD,LOT,34.073406,-118.1779,None,6436,Square Feet,None,None,None,None,None,None,None,None,"[]",None,None,None,None,None,None,None,None,,125000,USD,
91304,24303 Woolsey Cyn #45,RECENTLY_SOLD,MANUFACTURED,34.238636,-118.65494,1979,None,sqft,1944,sqft,0,3,2,2,None,None,"['Pillar/Post/Pier']","['Electric', 'Central']",None,None,None,None,None,138600,529,,136000,USD,
91304,8811 Canoga Ave SPACE 535,RECENTLY_SOLD,MANUFACTURED,34.231167,-118.59997,1971,20.277,Acres,1344,sqft,0,2,2,2,1,None,"[]","['Central']","['Central Air']",None,"['Public Sewer']",None,None,87000,330,,85000,USD,
90501,20315 Denker Ave,RECENTLY_SOLD,MANUFACTURED,33.846336,-118.30589,2010,None,sqft,407,sqft,0,1,1,1,1,"['Carpet', 'Vinyl']","['Tie Down']","['Natural Gas']","['Whole House Fan']",None,"['Public Sewer']",Shingle,None,111400,412,,110000,USD,
90032,2840 N Paradise Dr,RECENTLY_SOLD,LOT,34.08031,-118.19737,None,4743.684,Square Feet,None,None,None,None,None,None,None,None,"[]",None,None,None,"['Unknown']",None,None,None,2905,,65000,USD,
90065,3607 Parrish Ave,RECENTLY_SOLD,HOME_TYPE_UNKNOWN,34.110092,-118.228775,None,4400,Square Feet,None,None,None,None,None,None,None,"[]","[]","[]","[]",None,None,None,88000,None,3249,,85000,USD,
91406,7650 Balboa Blvd SPACE 126,RECENTLY_SOLD,MANUFACTURED,34.209686,-118.49922,1981,0,Square Feet,800,sqft,None,3,1,1,None,None,"[]","['Central Heat/Gas']","['Wall A/C Units']","['None']",None,Composition,9010,141900,539,,139000,USD,
90059,11114 Evers Ave,RECENTLY_SOLD,SINGLE_FAMILY,33.934345,-118.24705,1992,3195,Square Feet,1373,sqft,None,3,2.5,None,None,"[]","[]","['Wall']","[]",None,None,None,355023,599600,3484,,120449,USD,
91304,24303 Woolsey Cyn #127,RECENTLY_SOLD,MANUFACTURED,34.237762,-118.658295,1979,2900,Square Feet,1152,sqft,0,3,2,2,None,"['Wood']","[]","['Electric', 'Central']",None,None,None,None,None,138500,526,,136000,USD,
91364,4414 Morro Dr,RECENTLY_SOLD,LOT,34.151726,-118.58973,None,7169,Square Feet,None,None,None,None,None,None,None,None,"[]",None,None,None,None,None,85000,None,3499,,89000,USD,
90065,0 Aguilar St #15,RECENTLY_SOLD,LOT,34.126045,-118.23682,None,7405,Square Feet,None,None,None,None,None,None,None,None,"[]",None,None,None,None,None,None,None,None,,125000,USD,
90026,1483 N Occidental Blvd,RECENTLY_SOLD,SINGLE_FAMILY,34.08608,-118.26955,1950,5421,Square Feet,891,sqft,None,1,1,None,None,"[]","[]","['Other']","[]",None,None,None,534544,100900,3669,,100000,USD,
90068,3063 Passmore Dr,RECENTLY_SOLD,LOT,34.12712,-118.353134,None,6723,Square Feet,None,None,None,None,None,None,None,None,"[]",None,None,None,None,None,85335,None,6499,,145000,USD,
91304,8901 Eton Ave SPACE 32,RECENTLY_SOLD,MANUFACTURED,34.23282,-118.595825,1968,None,sqft,880,sqft,2,2,2,1,1,"['Carpet', 'Vinyl']","[]","['Forced Air']","['Evaporative Cooling']",None,"['Public Sewer']",None,None,112300,426,,110000,USD,
90020,360 S Kenmore Ave APT 310,FOR_SALE,CONDO,34.06737,-118.296265,1965,0.34859999999999997,Acres,603,sqft,None,1,1,1,3,"['Mixed']","[]","['Other']","['Wall Unit(s)']","['None']",None,None,None,379800,1999,,389900,USD,
90046,8501 Nash Dr,RECENTLY_SOLD,LOT,34.10669,-118.375885,None,4064,Square Feet,None,None,None,0,0,0,None,"[]","[]","[]","[]",None,None,None,148920,None,7199,,146000,USD,
90065,3947 Glenalbyn Dr,RECENTLY_SOLD,LOT,34.093998,-118.21396,None,4887.432,Square Feet,None,None,None,None,None,None,None,None,"[]",None,None,None,None,None,91892,None,2875,,115000,USD,
91342,15445 Cobalt St #156,RECENTLY_SOLD,MANUFACTURED,34.309967,-118.46893,1971,3500,Square Feet,1040,sqft,2,3,2,2,1,"['Laminate']","[]","['Central']","['Central Air']",None,"['Public Sewer']",None,None,242000,968,,240000,USD,
90710,26200 Frampton Ave SPACE 22,RECENTLY_SOLD,MANUFACTURED,33.786194,-118.29852,1976,None,sqft,1152,sqft,0,2,2,2,1,"['Carpet', 'Vinyl']","[]","['Natural Gas']","['None']",None,"['Public Sewer']",None,23791,173900,661,,170000,USD,
90065,632 Cross Ave,RECENTLY_SOLD,LOT,34.107197,-118.20913,None,4190.472,Square Feet,None,None,None,None,None,None,None,None,"[]",None,None,None,None,None,None,None,2999,,189000,USD,
91311,11401 N Topanga Canyon Blvd SPACE 33,RECENTLY_SOLD,MANUFACTURED,34.276115,-118.60808,2012,None,sqft,1176,sqft,0,2,2,2,1,"['Laminate']","[]","['Forced Air']","['Central Air']",None,"['Public Sewer']",None,91188,216300,866,,215000,USD,
90034,10521 National Blvd APT 110,RECENTLY_SOLD,CONDO,34.03038,-118.412605,1976,0.6214646464646465,Acres,618,sqft,None,1,1,None,None,"[]","[]","[]","[]",None,None,None,185431,344700,2998,,220000,USD,
90048,141 S Clark Dr APT 320,RECENTLY_SOLD,MULTI_FAMILY,34.07413,-118.38509,1973,0.9236914600550964,Acres,740,sqft,None,1,1,None,None,"['Hardwood']","[]","['Other']","['Central']",None,None,None,433451,230400,3183,,225000,USD,
90710,1501 Palos Verses Drnorth #41,RECENTLY_SOLD,MANUFACTURED,33.78057,-118.30035,2004,1500,Square Feet,1368,sqft,1,3,2,1,1,"['Laminate']","[]","['Central']","['Central Air']",None,"['Unknown']",None,None,224200,852,,220000,USD,
90059,918 E 112th St,RECENTLY_SOLD,SINGLE_FAMILY,33.93257,-118.25792,1947,3878,Square Feet,784,sqft,2,2,1,1,1,None,"[]",None,"['None']","['None']","['None']",None,426876,234900,2635,,230000,USD,
90032,4916 Ladd Ave #507,RECENTLY_SOLD,LOT,34.079517,-118.17663,None,8617,Square Feet,None,None,None,None,None,None,None,None,"[]",None,None,None,None,None,None,None,None,,150000,USD,
91304,24303 Woolsey Cyn #34,RECENTLY_SOLD,MANUFACTURED,34.23863,-118.656204,1978,None,sqft,2000,sqft,0,3,2,2,1,"['Carpet', 'Vinyl']","[]",None,"['Central Air']",None,"['Public Sewer']",None,None,203700,773,,199000,USD,
90002,1675 E 95th Pl #5,RECENTLY_SOLD,LOT,33.95037,-118.243744,None,2250,Square Feet,None,None,None,None,None,None,None,None,"[]",None,None,None,None,None,None,None,None,,225000,USD,
90016,2125 S Orange Dr,RECENTLY_SOLD,SINGLE_FAMILY,34.038162,-118.35108,1924,6001,Square Feet,1502,sqft,None,3,3,None,None,"[]","[]","['Other']","[]",None,None,None,58143,892000,4815,,240000,USD,
90065,610 Cross Ave,RECENTLY_SOLD,SINGLE_FAMILY,34.1072,-118.20914,None,4190,Square Feet,1725,sqft,None,3,3,0,None,"[]","[]","[]","['None']",None,None,None,136704,193100,734,,189000,USD,
90059,1649 E 109th St,RECENTLY_SOLD,SINGLE_FAMILY,33.93714,-118.24445,1935,8079,Square Feet,1016,sqft,None,3,1,None,None,"[]","[]","['Wall']","[]",None,None,None,371836,202700,3200,,200000,USD,
90036,148 S Orange Dr,RECENTLY_SOLD,HOME_TYPE_UNKNOWN,34.07215,-118.34173,None,0.29132231404958675,Acres,None,None,None,None,None,None,None,"[]","[]","[]","[]",None,None,None,107219,None,5249,,200000,USD,
91342,14075 Foothill Blvd APT 13A,FOR_SALE,CONDO,34.3153,-118.43977,1977,0.4986,Acres,615,sqft,None,1,1,1,None,"['Vinyl Plank']","[]","['Wall']","['Wall Unit(s)']","['None']",None,None,None,380100,2065,,359000,USD,
91316,5460 White Oak Ave UNIT J106,RECENTLY_SOLD,CONDO,34.16982,-118.517296,1971,9.3304,Acres,990,sqft,2,2,2,2,3,"['Laminate']","['Concrete Perimeter']","['Central']","['Central Air']","['None']","['Public Sewer']",Flat,329670,212800,2464,,210000,USD,
91316,5460 White Oak Ave UNIT D201,RECENTLY_SOLD,CONDO,34.17056,-118.51664,1971,9.3304,Acres,683,sqft,None,1,1,1,None,"['Carpet', 'Mixed', 'Other']","[]","['Central']","['Central Air']","['None']",None,None,119439,214800,2100,,210000,USD,
90002,10372 Beach St,RECENTLY_SOLD,SINGLE_FAMILY,33.94174,-118.241936,1970,5254,Square Feet,1300,sqft,None,4,2,0,None,"['Tile']","[]","['Forced air']","[]",None,None,None,103661,526600,3690,,183000,USD,
90042,5507 Via Marisol,RECENTLY_SOLD,TOWNHOUSE,34.10415,-118.18555,2006,0.448989898989899,Acres,1750,sqft,None,3,3,2,None,"[]","[]","['Other']","[]",None,None,None,530738,801900,4746,,191000,USD,
90017,630 W 6th St APT 609,RECENTLY_SOLD,APARTMENT,34.048985,-118.2562,1962,0.6108126721763085,Acres,680,sqft,None,1,1,0,None,"[]","[]","['Forced air']","['Other']",None,None,None,270903,391400,2250,,208000,USD,
90065,0 Future Pl,RECENTLY_SOLD,LOT,34.101025,-118.23106,None,3715.668,Square Feet,None,None,None,None,None,None,None,None,"[]",None,None,None,None,None,None,None,None,,180000,USD,
90068,7272 Outpost Cove Dr,RECENTLY_SOLD,LOT,34.119476,-118.350586,None,0.2914,Acres,None,None,None,None,None,None,None,None,"[]",None,None,None,None,None,314410,282900,1044,,200000,USD,
91364,5137 N Llano Dr #4101,RECENTLY_SOLD,LOT,34.161556,-118.61121,None,0.4673324150596878,Acres,None,None,None,None,None,None,None,None,"[]",None,None,None,None,None,None,None,None,,200000,USD,
91607,12801 Miranda St,RECENTLY_SOLD,SINGLE_FAMILY,34.175083,-118.41184,1953,6486,Square Feet,1338,sqft,None,3,2,None,None,"[]","[]","['Other']","[]",None,None,None,685738,607600,4997,,190000,USD,
90065,4052 W Avenue 42,RECENTLY_SOLD,HOME_TYPE_UNKNOWN,34.12561,-118.22645,None,6144,Square Feet,None,None,None,None,None,None,None,"[]","[]","[]","[]",None,None,None,2557,None,3249,,225000,USD,
91311,11401 Topanga Canyon Blvd SPACE 136,RECENTLY_SOLD,MANUFACTURED,34.276302,-118.6066,1998,17.0031,Acres,None,None,0,3,2,2,1,"['Laminate', 'Vinyl']","[]","['Central']","['Central Air']",None,"['Public Sewer']",None,31121,236600,899,,230000,USD,
91352,10749 New Haven St UNIT 1,RECENTLY_SOLD,CONDO,34.226753,-118.36548,1965,0.7199494949494949,Acres,691,sqft,1,1,1,1,2,None,"[]",None,"['Wall/Window Unit(s)']","['None']","['Public Sewer']",None,119323,246100,2100,,245000,USD,
91316,5400 Newcastle Ave APT 42,FOR_SALE,CONDO,34.168633,-118.52358,1967,1.3996,Acres,648,sqft,1,1,1,1,2,None,"[]","['Central']","['Central Air']","['None']","['Public Sewer']",None,None,408900,1949,,385000,USD,
90068,2272 Bronson Hill Dr,RECENTLY_SOLD,LOT,34.111782,-118.316414,None,4434.408,Square Feet,None,None,None,None,None,None,None,None,"[]",None,None,None,None,None,None,None,None,,210000,USD,
90077,15145 Mulholland Dr #9,RECENTLY_SOLD,LOT,34.131386,-118.46347,None,10744,Square Feet,None,None,None,None,None,None,None,None,"[]",None,None,None,None,None,None,None,None,,150000,USD,
91316,5460 White Oak Ave UNIT A313,RECENTLY_SOLD,CONDO,34.169823,-118.5173,1971,9.327502295684114,Acres,712,sqft,None,1,1,None,None,"[]","[]","['Other']","['Central']",None,None,None,114752,240900,2094,,235000,USD,
91364,4201 Topanga Canyon Blvd SPACE 43,RECENTLY_SOLD,MANUFACTURED,34.145885,-118.60932,1980,1100,Square Feet,860,sqft,None,2,2,2,1,"['Mixed']","[]","['Central']","['Central Air']","['None']","['In Street']",None,46443,215400,818,,210000,USD,
91304,24425 Woolsey Canyon Rd SPACE 34,RECENTLY_SOLD,MANUFACTURED,34.235264,-118.66214,1980,37.8611,Acres,1450,sqft,0,2,2,2,None,"['Laminate']","[]","['Central']","['Central Air']",None,None,None,35867,158700,697,,157000,USD,
91356,5445 Sylvia Ave,RECENTLY_SOLD,SINGLE_FAMILY,34.17028,-118.55268,2006,6975,Square Feet,3264,sqft,None,5,4,0,None,"['Hardwood']","[]","['Other']","['Central']",None,None,None,1395992,226500,8289,,223500,USD,
90016,2721 S Palm Grove Ave,RECENTLY_SOLD,SINGLE_FAMILY,34.03077,-118.346375,1925,5200,Square Feet,1280,sqft,None,2,2,None,None,"[]","[]","['Wall']","[]",None,None,None,735823,702300,3549,,209678,USD,
91311,21001 Plummer St #113,RECENTLY_SOLD,MANUFACTURED,34.243763,-118.59125,1976,None,sqft,1440,sqft,0,2,2,1,1,"['Carpet', 'Laminate']","['Raised']","['Central']","['Central Air']",None,"['Public Sewer']",None,33646,193600,737,,190000,USD,
90032,3918 Portola Ave,RECENTLY_SOLD,SINGLE_FAMILY,34.091022,-118.17189,1908,6600,Square Feet,944,sqft,None,2,1,None,None,"[]","[]","['Wall']","[]",None,None,None,296531,None,2999,,165100,USD,
90210,9855 Deep Canyon Pl,RECENTLY_SOLD,SINGLE_FAMILY,34.12215,-118.432076,1937,2.3087924701561064,Acres,5181,sqft,None,5,5,3,None,"['Tile', 'Carpet', 'Hardwood']","[]","['Forced air', 'Gas']","['Central']",None,"['On Site']",Composition,6630000,245000,29056,,240000,USD,
91342,13040 Dronfield Ave APT 20,RECENTLY_SOLD,CONDO,34.30805,-118.43673,1964,1.1772,Acres,595,sqft,1,1,1,1,1,None,"[]",None,"['Wall/Window Unit(s)']","['None']","['Public Sewer']",None,168186,205000,2085,,204000,USD,
90710,26200 Frampton Ave SPACE 47,RECENTLY_SOLD,MANUFACTURED,33.784756,-118.298996,1997,None,sqft,1080,sqft,2,2,2,2,1,"['Carpet', 'Laminate']","['Pier Jacks']","['Central']","['Central Air']",None,"['Public Sewer']",Shingle,37422,203900,776,,200000,USD,
90044,8636 S Vermont Ave,RECENTLY_SOLD,LOT,33.959286,-118.29129,None,3001.284,Square Feet,None,None,None,None,None,None,None,None,"[]",None,None,None,"['In Street']",None,95473,None,2414,,245000,USD,
91356,18530 Hatteras St UNIT 109,RECENTLY_SOLD,CONDO,34.17708,-118.536804,1978,1.9468,Acres,647,sqft,0,1,1,1,1,"['Laminate']","[]",None,"['Wall/Window Unit(s)']","['None']","['Public Sewer']",None,143657,None,2097,,280000,USD,
90046,8581 W Cole Crest Dr,RECENTLY_SOLD,SINGLE_FAMILY,34.103577,-118.37845,1989,3000,Square Feet,2892,sqft,2,5,5,2,None,None,"[]","['Central']","['See Remarks']","['See Through']","['Public Sewer']",None,1887000,None,13146,,246269,USD,
90069,8635 Hollywood Blvd,RECENTLY_SOLD,LOT,34.098053,-118.37811,None,4791,Square Feet,4560,sqft,None,0,0,0,None,"[]","[]","[]","[]",None,None,None,129605,None,5175,,275000,USD,
90710,1065 Lomita Blvd SPACE 351,RECENTLY_SOLD,MANUFACTURED,33.797592,-118.294655,1972,None,sqft,1440,sqft,0,2,2,2,1,"['See Remarks', 'Vinyl']","['Raised']","['Central']","['None']",None,"['Public Sewer']",None,None,269700,1029,,265000,USD,
91316,5460 White Oak Ave UNIT G205,RECENTLY_SOLD,CONDO,34.16982,-118.517296,1971,9.3275,Acres,990,sqft,0,2,2,2,3,None,"[]","['Central']","['See Remarks']","['See Remarks']","['Public Sewer']",None,315246,254300,2464,,250000,USD,
91316,5460 White Oak Ave UNIT H105,RECENTLY_SOLD,CONDO,34.16982,-118.517296,1971,9.3304,Acres,990,sqft,2,2,2,2,4,None,"[]","['Central']","['Central Air']","['None']","['Public Sewer']",None,362058,277000,2464,,275000,USD,
91304,24060 Jensen Dr,RECENTLY_SOLD,SINGLE_FAMILY,34.22277,-118.65088,1929,7264,Square Feet,576,sqft,None,1,1,None,None,"[]","[]","[]","[]",None,None,None,34330,301300,2228,,300000,USD,
91316,5460 White Oak Ave UNIT A214,RECENTLY_SOLD,CONDO,34.16982,-118.517296,1971,406432,Acres,990,sqft,2,2,2,2,3,"['Wood']","[]","['Central']","['Central Air']","['None']","['Public Sewer']",None,247536,271100,2464,,270000,USD,
90042,1231 Le Gray Ave,RECENTLY_SOLD,LOT,34.124077,-118.19054,None,0.2526,Acres,None,None,None,None,None,None,None,None,"[]",None,None,None,"['None']",None,220336,None,2999,,252500,USD,
91316,5460 White Oak Ave UNIT D210,RECENTLY_SOLD,CONDO,34.16982,-118.517296,1971,9.3275,Acres,990,sqft,2,2,2,2,3,"['Laminate', 'Tile']","[]","['Central']","['Central Air']","['None']","['Public Sewer']",None,327725,301500,2464,,294000,USD,
91345,4 Carolyn Way,RECENTLY_SOLD,MANUFACTURED,34.26926,-118.46435,2022,None,sqft,1296,sqft,0,3,2,2,1,"['Laminate']","[]","['Central']","['Central Air']",None,"['Public Sewer']",None,162006,252100,957,,245000,USD,
90026,1542 Parmer Ave,RECENTLY_SOLD,LOT,34.080524,-118.253624,None,5431.932,Square Feet,None,None,None,None,None,None,None,None,"[]",None,None,None,None,None,166131,None,4450,,250000,USD,
91342,13691 Gavina Ave UNIT 552,RECENTLY_SOLD,MANUFACTURED,34.316757,-118.403885,1988,1,Acres,1326,sqft,2,3,2,2,1,None,"[]",None,"['Central Air']","['None']","['Public Sewer']",None,34451,299600,1137,,295000,USD,
91423,3747 Camino De La Cumbre,RECENTLY_SOLD,LOT,34.138905,-118.44568,None,0.3568870523415978,Acres,None,None,None,None,0,0,None,"[]","[]","[]","[]",None,None,None,193800,None,4200,,260000,USD,
90025,1700 Sawtelle Blvd APT 305,RECENTLY_SOLD,APARTMENT,34.045116,-118.44682,2008,0.8880853994490359,Acres,830,sqft,None,2,2,0,None,"['Hardwood']","[]","['Other']","['Central']",None,None,None,581873,718400,3711,,282000,USD,
91364,5143 N Llano Dr #4100,RECENTLY_SOLD,LOT,34.161568,-118.61152,None,0.6048668503213958,Acres,None,None,None,None,None,None,None,None,"[]",None,None,None,"['Public Sewer']",None,None,None,None,,265000,USD,
90020,525 S Ardmore Ave APT 212,RECENTLY_SOLD,CONDO,34.065117,-118.30194,1973,1.6867,Acres,368,sqft,1,1,1,1,1,"['Laminate']","[]","['Wall Furnace']","['Wall/Window Unit(s)']","['None']","['Public Sewer']",None,196371,291000,1752,,289000,USD,
90065,4296 Scandia Way,RECENTLY_SOLD,LOT,34.119,-118.22149,None,4804.668,Square Feet,None,None,None,None,None,None,None,None,"[]",None,None,None,"['None']",None,18590,None,3249,,285000,USD,
90732,1410 Brett Pl UNIT 134,RECENTLY_SOLD,CONDO,33.75674,-118.30573,1987,4.045247933884298,Acres,864,sqft,None,1,1,1,None,"['Carpet']","[]","['Forced air', 'Electric']","['Central']","['Living Room']","['Public Sewer']",None,378316,477700,2500,,253000,USD,
90065,4307 Scandia Way,RECENTLY_SOLD,LOT,34.119186,-118.22098,None,5388.372,Square Feet,None,None,None,None,None,None,None,None,"[]",None,None,None,"['None']",None,17497,None,3300,,285000,USD,
91423,3747 Camino De La Cumbre #17,RECENTLY_SOLD,LOT,34.1389,-118.44567,None,0.3570477502295684,Acres,None,None,None,None,None,None,None,None,"[]",None,None,None,None,None,None,None,None,,260000,USD,
91335,17900 Sherman Way APT 516,RECENTLY_SOLD,CONDO,34.20031,-118.52281,1976,2.4914,Acres,516,sqft,None,1,1,1,2,"['Laminate', 'Ceramic Tile']","[]","['Wall', 'Natural Gas']","['Wall/Window Unit(s)']","['None']",None,None,204976,270800,1995,,264000,USD,
90026,1548 Parmer Ave,RECENTLY_SOLD,LOT,34.08061,-118.25349,None,5074.74,Square Feet,None,None,None,None,None,None,None,None,"[]",None,None,None,None,None,131960,None,4224,,250000,USD,
90710,1501 Palos Verdes Dr N SPC 26,RECENTLY_SOLD,MANUFACTURED,33.781097,-118.30052,2006,None,sqft,1056,sqft,0,3,2,1,1,"['Vinyl']","['Pier Jacks']","['Central', 'Forced Air']","['Central Air']",None,"['Public Sewer']",Composition,None,256900,979,,250000,USD,
91364,4201 Topanga Canyon Blvd SPC 22,RECENTLY_SOLD,MANUFACTURED,34.145977,-118.60738,1978,None,sqft,968,sqft,0,2,2,2,1,"['Carpet', 'Tile']","[]",None,None,None,"['Public Sewer']",Metal,Wood,None,261700,1008,,255000,USD,
90034,3734 S Canfield Ave APT 107,RECENTLY_SOLD,CONDO,34.0276,-118.39504,1972,0.4476584022038568,Acres,756,sqft,None,2,1,1,None,"[]","[]","['Other']","['Wall']",None,None,None,505688,553000,2882,,281500,USD,
91304,8901 Eton Ave SPACE 33,RECENTLY_SOLD,MANUFACTURED,34.23125,-118.59632,1994,None,sqft,1243,sqft,0,3,2,2,1,"['Laminate', 'Tile']","[]","['Central']","['Central Air']",None,"['Public Sewer']",Composition,33581,272900,1040,,269000,USD,
91356,18530 Hatteras St UNIT 116,RECENTLY_SOLD,CONDO,34.17708,-118.536804,1978,1.9468,Acres,720,sqft,1,1,1,1,3,None,"['Slab']",None,"['Wall/Window Unit(s)']","['None']","['Public Sewer']",None,261120,285200,2096,,285000,USD,
91342,13691 Gavina Ave #469,RECENTLY_SOLD,MANUFACTURED,34.316757,-118.403885,1989,None,sqft,1232,sqft,2,2,2,2,1,None,"['Pier Jacks']",None,None,None,"['Public Sewer']",None,30109,293700,922,,290000,USD,
90003,6007 S Main St,RECENTLY_SOLD,MULTI_FAMILY,33.984863,-118.27428,1911,5662,Square Feet,1756,sqft,None,5,0,None,None,"[]","[]","[]","[]",None,None,None,387892,272300,3329,,270000,USD,
90046,8325 Yucca Trl,RECENTLY_SOLD,HOME_TYPE_UNKNOWN,34.104427,-118.37197,None,5675,Square Feet,None,None,None,None,None,None,None,"[]","[]","[]","[]",None,None,None,52913,None,10749,,250000,USD,
91342,12001 Foothill Blvd SPACE 2,RECENTLY_SOLD,MANUFACTURED,34.277073,-118.39634,1980,None,sqft,1836,sqft,0,3,2,2,11,None,"[]",None,"['Central Air']",None,"['Public Sewer']",None,33560,255900,973,,250000,USD,
91316,5325 Newcastle Ave UNIT 128,RECENTLY_SOLD,CONDO,34.167473,-118.52513,1971,2.3686,Acres,483,sqft,1,0,1,1,1,"['Laminate', 'Tile']","[]","['Central']","['Central Air']","['Gas']","['Public Sewer']",None,273409,304700,1650,,300000,USD,
90044,640 W 94th St,RECENTLY_SOLD,MULTI_FAMILY,33.95073,-118.28609,1920,5666,Square Feet,2456,sqft,None,5,3,None,None,"[]","[]","[]","[]",None,None,None,323863,671900,4319,,250000,USD,
90002,10616 Croesus Ave,RECENTLY_SOLD,SINGLE_FAMILY,33.939297,-118.23351,1915,6501,Square Feet,1176,sqft,None,3,1,None,None,"[]","[]","['Wall']","[]",None,None,None,174243,482800,3284,,262500,USD,
90065,4308 N Scandia Way,RECENTLY_SOLD,LOT,34.11963,-118.22315,None,5784.768,Square Feet,None,None,None,None,None,None,None,None,"[]",None,None,None,"['None']",None,None,None,3300,,285000,USD,
91316,5460 White Oak Ave UNIT D210,RECENTLY_SOLD,SINGLE_FAMILY,34.169823,-118.5173,None,None,sqft,990,sqft,None,2,2,2,None,"[]","[]","[]","[]",None,None,None,None,400000,2550,,294000,USD,
90065,4300 N Scandia Way,RECENTLY_SOLD,LOT,34.11899,-118.22122,None,4769.82,Square Feet,None,None,None,None,None,None,None,None,"[]",None,None,None,"['None']",None,None,None,3249,,285000,USD,
91304,8811 Canoga Ave SPACE 226,RECENTLY_SOLD,MANUFACTURED,34.231167,-118.59997,1970,None,sqft,1368,sqft,0,3,2,None,1,"['Vinyl']","[]","['Central']","['Central Air']",None,"['Public Sewer']",None,19533,289700,1126,,289000,USD,
90043,6010 3rd Ave,RECENTLY_SOLD,SINGLE_FAMILY,33.985115,-118.32031,1924,4802,Square Feet,936,sqft,None,2,1,None,None,"[]","[]","['Wall']","[]",None,None,None,140708,255400,2981,,250000,USD,
91331,12601 Van Nuys Blvd UNIT 252,RECENTLY_SOLD,CONDO,34.2769,-118.40812,1989,4.8706,Acres,667,sqft,None,2,1,1,None,"['Laminate']","[]","['Central']","['Central Air']","['None']",None,None,330000,357700,2535,,350000,USD,
91356,18645 Hatteras St UNIT 279,RECENTLY_SOLD,CONDO,34.177917,-118.53988,1973,5.2835,Acres,758,sqft,0,1,1,1,2,"['Wood']","[]","['Central']",None,"['Free Standing', 'Gas', 'Great Room']",None,None,148315,335200,2199,,335000,USD,
91304,8901 Eton Ave SPACE 73,RECENTLY_SOLD,MANUFACTURED,34.23282,-118.595825,2004,None,sqft,1500,sqft,0,3,2,2,1,None,"['Raised']",None,"['Central Air']",None,"['Public Sewer']",None,50686,313500,1191,,305000,USD,
91040,11402 Eby Canyon Rd,RECENTLY_SOLD,LOT,34.275322,-118.31973,None,2.6256,Acres,None,None,None,None,None,None,None,None,"[]",None,None,None,None,None,155105,None,3499,,310000,USD,
91316,5325 Newcastle Ave UNIT 334,RECENTLY_SOLD,CONDO,34.167473,-118.52513,1971,2.3686,Acres,475,sqft,1,1,1,1,1,"['Wood']","[]","['Central']","['Central Air']","['Living Room']","['Public Sewer']",Common Roof,300000,311200,1800,,310000,USD,
91605,7131 Coldwater Canyon Ave APT 6,RECENTLY_SOLD,CONDO,34.200058,-118.414955,1962,1.8389,Acres,650,sqft,None,2,1,1,2,"['Carpet']","[]","['Wall']","['Wall Unit(s)']","['None']",None,None,None,321500,2525,,320000,USD,
91335,19350 Sherman Way UNIT 127,RECENTLY_SOLD,CONDO,34.200462,-118.55501,1990,1.9019,Acres,619,sqft,2,1,1,1,3,None,"[]","['Central']","['Central Air']","['Living Room']","['Public Sewer']",None,223860,350800,1999,,343000,USD,
90011,2509 Naomi Ave,RECENTLY_SOLD,MULTI_FAMILY,34.01832,-118.25223,1922,2608,Square Feet,920,sqft,None,2,2,None,None,"[]","[]","[]","[]",None,None,None,60624,463100,2450,,305000,USD,
90032,5040 Cavanagh Rd,RECENTLY_SOLD,SINGLE_FAMILY,34.068798,-118.1742,1927,4811,Square Feet,624,sqft,None,2,1,None,None,"[]","[]","['Wall']","[]",None,None,None,186813,553600,2599,,332500,USD,
91342,13691 Gavina Ave UNIT 443,RECENTLY_SOLD,MANUFACTURED,34.316757,-118.403885,1990,0.19,Square Feet,1992,sqft,2,3,2,2,1,"['Laminate']","[]","['Central']","['See Remarks']",None,"['Public Sewer']",None,None,332400,1269,,325000,USD,
91356,18645 Hatteras St UNIT 193,RECENTLY_SOLD,CONDO,34.17793,-118.53989,1973,5.2835,Acres,472,sqft,0,1,1,1,1,"['Tile']","['Slab']","['Central']","['Central Air', 'Gas']","['None']","['Public Sewer']",Common Roof,Composition,141602,351300,1849,,345000,USD,
91356,18530 Hatteras St UNIT 329,RECENTLY_SOLD,CONDO,34.17708,-118.536804,1978,1.9468,Acres,632,sqft,1,1,1,1,1,None,"[]","['Heat Pump', 'Wall Furnace']","['Wall/Window Unit(s)']","['None']","['Public Sewer']",None,228888,309500,2094,,308000,USD,
91306,20234 Cantara St UNIT 229,RECENTLY_SOLD,CONDO,34.218777,-118.574394,1979,2.9536,Acres,744,sqft,2,1,1,1,3,"['Laminate', 'Tile']","[]","['Central', 'Electric']","['Wall/Window Unit(s)']","['None']","['Public Sewer']",Common Roof,66452,336700,2169,,330000,USD,
91343,15516 Nordhoff St UNIT 217,RECENTLY_SOLD,CONDO,34.2351,-118.47061,1980,0.8041322314049587,Acres,805,sqft,2,2,1,1,1,None,"[]","['Central']","['Central Air']","['None']","['Public Sewer']",None,61357,321300,2496,,330000,USD,
90021,752 E 17th St,RECENTLY_SOLD,MULTI_FAMILY,34.028194,-118.254974,1902,3850,Square Feet,2064,sqft,0,4,4,None,1,None,"[]",None,None,None,"['Public Sewer']",None,452573,458100,3999,,320000,USD,
91367,6041 Fountain Park Ln #6,RECENTLY_SOLD,CONDO,34.18061,-118.607086,1966,8.5,Acres,766,sqft,0,2,1,1,1,"['Vinyl']","['Slab']","['Wall Furnace']","['Wall/Window Unit(s)']","['None']","['Public Sewer']",None,None,345100,2570,,340000,USD,
91343,8414 Columbus Ave UNIT 2,RECENTLY_SOLD,TOWNHOUSE,34.2233,-118.4649,1978,1.22,Acres,935,sqft,2,2,2,1,2,"['Laminate', 'Tile']","['Slab']","['Central']","['Central Air']","['None']","['Public Sewer']",None,331118,354800,2557,,349000,USD,
91352,7526 Satsuma Ave,RECENTLY_SOLD,SINGLE_FAMILY,34.20742,-118.36674,1949,7629,Square Feet,1550,sqft,None,3,2,None,None,"[]","[]","['Wall']","[]",None,None,None,360585,770000,4370,,300000,USD,
91367,21301 Erwin St UNIT 412,RECENTLY_SOLD,CONDO,34.183853,-118.59625,2010,3.0895775941230488,Acres,1050,sqft,None,2,2,None,None,"[]","[]","['Other']","['Central']",None,None,None,412882,318500,3200,,315000,USD,
91331,12601 Van Nuys Blvd UNIT 225,RECENTLY_SOLD,CONDO,34.277515,-118.40842,1989,4.8706,Acres,886,sqft,0,3,2,2,2,"['Carpet']","[]","['Central']","['Central Air']","['None']","['Public Sewer']",None,187913,351300,2663,,350000,USD,
90012,267 S San Pedro St UNIT 106,RECENTLY_SOLD,CONDO,34.04805,-118.24299,2006,1.4818,Acres,690,sqft,None,1,1,1,5,"['Carpet']","[]","['Central']","['Air Conditioning', 'Central Air']","['None']",None,None,375476,335200,2350,,335000,USD,
91304,21800 Schoenborn St UNIT 260,RECENTLY_SOLD,CONDO,34.22031,-118.603546,1980,3.8994,Acres,511,sqft,2,1,1,1,1,"['Laminate']","[]","['Central']","['Wall/Window Unit(s)']","['Family Room']","['Public Sewer']",None,131252,353600,1999,,345000,USD,
90002,10420 E Zamora Ave,RECENTLY_SOLD,SINGLE_FAMILY,33.94196,-118.25151,1944,5100,Square Feet,1469,sqft,None,3,2,2,None,"['Carpet', 'Hardwood']","[]","['Other']","['None']",None,None,Composition,384849,600000,3634,,330000,USD,
90059,11211 Stanford Ave,RECENTLY_SOLD,SINGLE_FAMILY,33.932453,-118.26243,1980,5000,Square Feet,1296,sqft,None,4,2,2,None,"['Tile']","[]","['Wall', 'Gas']","['None']",None,None,None,289373,353700,3599,,345000,USD,
91316,5460 White Oak Ave UNIT E338,RECENTLY_SOLD,CONDO,34.16982,-118.517296,1971,9.3304,Acres,1009,sqft,2,2,2,2,2,"['Wood']","[]","['Central']","['Central Air']","['None']","['Public Sewer']",None,378419,345300,2628,,340000,USD,
90744,815 W G St #21,RECENTLY_SOLD,LOT,33.778194,-118.27229,None,0.3314508723599633,Acres,None,None,None,None,None,None,None,None,"[]",None,None,None,None,None,None,None,None,,310000,USD,
90065,3030 Valle Vista Dr APT 34,RECENTLY_SOLD,CONDO,34.12135,-118.229034,1979,None,sqft,504,sqft,0,1,1,1,None,None,"[]","['Wall Furnace']","['Wall/Window Unit(s)']","['None']","['Public Sewer']",None,186503,346600,1988,,340000,USD,
91316,5325 Newcastle Ave UNIT 113,RECENTLY_SOLD,CONDO,34.16716,-118.524506,1971,2.3679981634527087,Acres,809,sqft,None,2,1,1,None,"['Laminate']","[]","['Other', 'Gas']","['Central']",None,None,Composition,273347,322200,2635,,320000,USD,
91402,8801 Willis Ave #37,RECENTLY_SOLD,CONDO,34.23014,-118.45588,1978,779,Square Feet,779,sqft,2,2,1,1,1,None,"[]","['Central']","['Central Air']","['None']","['Public Sewer']",None,181738,338600,2500,,330000,USD,
91606,11025 Kittridge St APT 128,RECENTLY_SOLD,CONDO,34.190636,-118.370895,1970,0.9906795224977043,Acres,696,sqft,0,1,1,1,2,"['Vinyl']","[]","['Central']","['Electric']","['None']","['Public Sewer']",None,328364,341000,1998,,335000,USD,
91042,10611 Fitzroy Ave,RECENTLY_SOLD,SINGLE_FAMILY,34.261494,-118.287895,1921,4173,Square Feet,731,sqft,None,2,1,None,None,"[]","[]","['Wall']","[]",None,None,None,41528,347500,2900,,340000,USD,
91316,4947 Zelzah Ave,RECENTLY_SOLD,SINGLE_FAMILY,34.15981,-118.523224,1952,6035,Square Feet,2451,sqft,None,3,3,None,None,"[]","[]","['Wall']","[]",None,None,None,725931,330400,6499,,328000,USD,
91352,11911 Peoria St,RECENTLY_SOLD,SINGLE_FAMILY,34.22961,-118.39301,1962,9694,Square Feet,1508,sqft,None,3,2,None,None,"[]","[]","['Other']","[]",None,None,None,650250,708600,3999,,336000,USD,
91402,8801 Willis Ave #31,FOR_RENT,APARTMENT,34.230145,-118.455894,None,None,sqft,997,sqft,None,2,2,2,None,None,None,None,"['Central Air', 'Ceiling Fan']",None,None,None,None,355700,2631,,2700,USD,
90018,1853 W 25th St,RECENTLY_SOLD,MULTI_FAMILY,34.033913,-118.30476,1913,6652,Square Feet,3024,sqft,None,None,4,None,None,"[]","[]","[]","[]",None,None,None,314799,800400,2740,,315000,USD,
91352,8641 Glenoaks Blvd UNIT 121,RECENTLY_SOLD,CONDO,34.227467,-118.36488,1980,None,sqft,565,sqft,0,1,1,1,None,"['Vinyl']","['Slab']","['Wall Furnace']","['Wall/Window Unit(s)']","['Decorative', 'See Remarks']","['Public Sewer']",Composition,57614,326800,2098,,320000,USD,
91605,7131 Coldwater Canyon Ave #2,RECENTLY_SOLD,CONDO,34.20004,-118.41518,1962,1.8383,Acres,750,sqft,None,2,1,1,2,"['Laminate']","[]","['Wall Gas']","['Wall Unit(s)']","['None']",None,None,None,344500,2525,,335000,USD,
91304,21219 Roscoe Blvd UNIT 107,RECENTLY_SOLD,CONDO,34.220417,-118.59446,1980,0.7579889807162534,Acres,731,sqft,2,2,1,1,3,None,"['Concrete Slab']",None,"['Central Air/Refrig']","['Living Room']","['Sewer in Street']",Asphalt,291119,352600,2342,,350000,USD,
90043,5139 5th Ave,RECENTLY_SOLD,SINGLE_FAMILY,33.995625,-118.32283,1921,5402,Square Feet,1294,sqft,None,2,2,None,None,"[]","[]","['Wall']","[]",None,None,None,252860,668900,3800,,336500,USD,
90012,267 S San Pedro St UNIT 310,FOR_RENT,CONDO,34.04805,-118.24299,2006,None,sqft,970,sqft,None,2,2,2,None,"['Carpet']",None,"['Central']","['Central Air']",None,None,None,None,346400,2658,,2500,USD,
91364,4201 Topanga Canyon Blvd SPACE 144,RECENTLY_SOLD,MANUFACTURED,34.144108,-118.60955,1964,None,sqft,1440,sqft,None,3,2,2,1,"['Ceramic Tile']","['Pillar/Post/Pier']","['Central']","['Central Air']","['None']","['In Street']",None,None,307200,1193,,305000,USD,
90013,312 W 5th St APT 726,RECENTLY_SOLD,CONDO,34.048195,-118.25113,1923,0.6263774104683195,Acres,520,sqft,None,1,1,0,None,"[]","[]","['Forced air']","['None']",None,None,None,59254,371300,1784,,362000,USD,
91335,19137 Haynes St UNIT 2,RECENTLY_SOLD,CONDO,34.189907,-118.55173,1976,5.176078971533517,Acres,1297,sqft,None,3,2,None,None,"[]","[]","['Other']","['Central']",None,None,None,194797,622200,3495,,372000,USD,
90002,715 E 103rd St,RECENTLY_SOLD,SINGLE_FAMILY,33.943558,-118.26186,1944,5502,Square Feet,1230,sqft,1,4,2,2,1,None,"[]",None,"['None']","['None']","['Public Sewer']",None,382307,None,3703,,375000,USD,
91304,8601 International Ave UNIT 280,RECENTLY_SOLD,CONDO,34.226994,-118.600044,1971,5.4118,Acres,883,sqft,0,2,2,2,2,"['Carpet', 'Tile']","[]","['Central']","['Central Air']","['None']","['Public Sewer']",None,186406,356400,2498,,350000,USD,
90061,116 W 113th St,RECENTLY_SOLD,MULTI_FAMILY,33.93174,-118.27459,1947,6994,Square Feet,1626,sqft,None,6,3,None,None,"[]","[]","[]","[]",None,None,None,589708,358300,3900,,350000,USD,
91316,5460 White Oak Ave UNIT A334,RECENTLY_SOLD,CONDO,34.16982,-118.517296,1971,9.3304,Acres,1009,sqft,2,2,2,2,4,"['Concrete']","[]","['Central']","['Central Air']","['None']","['Public Sewer']",Asphalt,Common Roof,224112,352600,2628,,350000,USD,
90002,811 E 94th St,RECENTLY_SOLD,SINGLE_FAMILY,33.951385,-118.26035,1940,5026,Square Feet,1288,sqft,None,3,2,None,None,"['Carpet', 'Linoleum / Vinyl']","[]","['Wall']","['None']",None,None,Other,259212,597000,3534,,365000,USD,
90047,1543 W 71st St,RECENTLY_SOLD,SINGLE_FAMILY,33.975624,-118.30391,1923,4680,Square Feet,1225,sqft,2,3,1,1,1,None,"['Raised']","['None']","['None']","['None']","['Public Sewer']",Shingle,186114,370100,3499,,370000,USD,
91324,20 Dover Dr,RECENTLY_SOLD,MANUFACTURED,34.23217,-118.55064,2023,2496,Square Feet,1501,sqft,0,4,2,2,1,"['Vinyl']","[]",None,"['Central Air']",None,"['Public Sewer']",None,None,375500,1434,,370000,USD,
91402,9054 Willis Ave UNIT 28,RECENTLY_SOLD,CONDO,34.23445,-118.4548,1977,1.1753,Acres,1031,sqft,2,3,2,2,1,"['Carpet']","[]","['Natural Gas']","['Central Air']","['Living Room']","['Public Sewer']",None,420240,356700,2749,,353000,USD,
90024,10751 Wilshire Blvd APT 903,RECENTLY_SOLD,CONDO,34.060486,-118.438194,1972,0.40879247015610654,Acres,853,sqft,None,1,2,None,None,"[]","[]","['Other']","['Central']",None,None,None,231503,394400,3292,,350000,USD,
91304,7632 Topanga Canyon Blvd APT 208,RECENTLY_SOLD,CONDO,34.20941,-118.605095,1980,1.4898,Acres,700,sqft,0,1,1,1,1,"['Laminate']","[]","['Central']","['Central Air']","['None']","['Public Sewer']",None,124058,365600,2099,,360000,USD,
90062,1514 W 55th St,RECENTLY_SOLD,MULTI_FAMILY,33.992092,-118.30282,1911,4960,Square Feet,1929,sqft,2,None,None,None,2,None,"[]",None,None,None,"['Public Sewer']",None,618109,696400,4759,,374612,USD,
91335,19350 Sherman Way UNIT 304,RECENTLY_SOLD,CONDO,34.200768,-118.553734,1991,1.9013,Acres,665,sqft,2,1,1,1,3,None,"[]","['Central']","['Central Air']","['Living Room']","['Public Sewer']",None,233250,367000,2034,,360000,USD,
91367,5500 Owensmouth Ave APT 208,RECENTLY_SOLD,CONDO,34.170654,-118.60123,1987,1.6895,Acres,610,sqft,0,1,1,1,1,"['See Remarks']","[]","['Central']","['Central Air']","['Living Room']","['Public Sewer']",None,383096,377800,2100,,375000,USD,
91304,21801 Roscoe Blvd UNIT 233,RECENTLY_SOLD,CONDO,34.219955,-118.60362,1980,3.9,Acres,719,sqft,0,2,1,1,1,"['Hardwood', 'Laminate']","['Combination', 'Concrete Slab']","['Heat Pump']","['Refridge Wall/Window']","['Living Room']","['Sewer Connected']",Asphalt,Composition,110143,375300,2350,,375000,USD,
90057,210 S La Fayette Park Pl APT 207,RECENTLY_SOLD,CONDO,34.06866,-118.27906,1970,0.3998,Acres,472,sqft,None,1,1,1,3,"['Tile']","[]","['Wall Electric', 'Other']","['Wall Unit(s)']","['None']",None,None,332927,368200,1795,,365000,USD,
90042,4280 Via Arbolada UNIT 225,RECENTLY_SOLD,CONDO,34.097748,-118.18558,1986,4.9618916437098255,Acres,1372,sqft,None,2,2,None,None,"[]","[]","['Other']","['Central']",None,None,None,310292,707400,3992,,350000,USD,
90003,8721 S San Pedro St,RECENTLY_SOLD,SINGLE_FAMILY,33.95833,-118.26979,1924,2522,Square Feet,520,sqft,0,1,1,1,1,"['Tile']","[]","['None']","['Wall/Window Unit(s)']","['None']","['Public Sewer']",Shingle,13971,370100,1900,,370000,USD,
90023,1229 S Indiana St,FOR_SALE,MULTI_FAMILY,34.01789,-118.19254,1927,4835,Square Feet,1128,sqft,0,6,4,None,1,"['Laminate']","['Raised']","['Wall Furnace']","['Zoned']","['Kitchen']","['Public Sewer']",Shingle,None,None,3099,,659000,USD,
91605,7904 Laurel Canyon Blvd UNIT 12,RECENTLY_SOLD,TOWNHOUSE,34.214127,-118.396164,1973,0.26080000000000003,Acres,730,sqft,2,1,1,1,2,"['Ceramic Tile', 'Hardwood']","['Other']","['Central', 'Radiant']","['Wall/Window Unit(s)', 'Air Conditioning', 'Electric']","['None']",None,Common Roof,303795,371300,2149,,362000,USD,
91306,20253 Keswick St APT 207,RECENTLY_SOLD,CONDO,34.210007,-118.57493,1988,1.3372,Acres,630,sqft,2,1,1,1,2,None,"[]","['Central']","['Central Air']","['Living Room']","['Public Sewer']",None,137907,377900,2100,,369000,USD,
91406,15946 Vanowen St UNIT 110,RECENTLY_SOLD,CONDO,34.193558,-118.48087,1984,0.38349403122130393,Acres,687,sqft,2,1,1,1,1,"['Vinyl']","['Slab']","['Central']","['Central Air']","['Living Room', 'Electric']","['Public Sewer']",Composition,161401,355200,1999,,355000,USD,
91367,22050 Calvert St APT 4,RECENTLY_SOLD,CONDO,34.180977,-118.608185,1966,8.5,Acres,766,sqft,0,2,1,1,1,"['Vinyl']","[]","['Central']","['Wall/Window Unit(s)']","['None']","['Public Sewer']",Flat,None,364500,2570,,359900,USD,
90023,3531 E 6th 1/2 Los #1/2,RECENTLY_SOLD,HOME_TYPE_UNKNOWN,34.029602,-118.19541,None,None,sqft,None,None,None,None,None,None,None,"[]","[]","[]","[]",None,None,None,None,None,None,,350000,USD,
91311,10237 De Soto Ave UNIT F,RECENTLY_SOLD,CONDO,34.25633,-118.58926,1984,1.0867,Acres,481,sqft,0,1,1,1,1,"['Laminate']","['Slab']","['Central']","['Central Air']","['None']","['Public Sewer']",Common Roof,268048,379200,1999,,375000,USD,
90049,839 1/2 S Bundy Dr,RECENTLY_SOLD,CONDO,34.049522,-118.47185,1989,0.38562901744719924,Acres,2485,sqft,None,3,3,None,None,"[]","[]","['Other']","['Central']",None,None,None,1629007,1474700,9988,,375000,USD,
91402,14805 Chase St UNIT 221,RECENTLY_SOLD,CONDO,34.224964,-118.45589,1976,0.7430670339761248,Acres,777,sqft,0,2,1,1,1,None,"[]","['Central']","['Wall/Window Unit(s)']","['None']","['Public Sewer']",None,159056,356500,2485,,355000,USD,
90012,800 W 1st St APT 1604,RECENTLY_SOLD,CONDO,34.05641,-118.25153,1968,2.44,Acres,481,sqft,1,0,1,1,None,None,"['Concrete Slab']",None,"['Central Air/Evap', 'Central Air/Refrig']","['None']","['Sewer Connected']",Composition,131776,371600,2238,,365000,USD,
90044,733 W 101st St,RECENTLY_SOLD,SINGLE_FAMILY,33.944866,-118.288124,1925,5286,Square Feet,624,sqft,None,1,1,None,None,"[]","[]","['Wall']","[]",None,None,None,223395,359900,2183,,355000,USD,
91316,5349 Newcastle Ave APT 50,RECENTLY_SOLD,CONDO,34.168224,-118.52513,1967,1.399,Acres,729,sqft,1,1,1,1,2,"['Vinyl']","[]","['Central']","['Central Air']","['None']","['Public Sewer']",None,277759,359300,2098,,354900,USD,
90048,321 S San Vicente Blvd APT 407,FOR_SALE,CONDO,34.07311,-118.37805,1976,0.9778696051423325,Acres,1236,sqft,2,2,2,2,1,None,"[]","['Forced Air']","['Central Air']",None,None,None,None,None,None,,699000,USD,
91402,14501 Tupper St,RECENTLY_SOLD,TOWNHOUSE,34.239887,-118.44844,1973,3.4475,Acres,1134,sqft,1,3,2,1,2,None,"[]","['Central']","['Wall/Window Unit(s)']","['None']","['Public Sewer']",None,173120,382000,3149,,373000,USD,
91303,6815 Remmet Ave UNIT 320,RECENTLY_SOLD,CONDO,34.194485,-118.60049,1986,1.3012,Acres,619,sqft,0,1,1,1,3,None,"[]","['Central']","['Central Air']","['None']","['Public Sewer']",None,296675,362900,2149,,360000,USD,
90068,3711 Fredonia Dr,RECENTLY_SOLD,SINGLE_FAMILY,34.13292,-118.36239,1958,0.44028925619834713,Acres,2057,sqft,None,4,3,3,None,"['Tile', 'Concrete', 'Hardwood']","[]","['Forced air', 'Gas']","['Central']",None,"['In Street']",None,1450171,382000,8900,,375000,USD,
91402,8801 Willis Ave #18,RECENTLY_SOLD,CONDO,34.23014,-118.45588,1978,2.1015,Acres,997,sqft,0,2,2,2,1,None,"[]","['Central']","['Central Air']","['None']","['Public Sewer']",None,197351,376100,2700,,372000,USD,
91356,18620 Hatteras St UNIT 235,RECENTLY_SOLD,CONDO,34.177036,-118.53929,1970,5.009986225895317,Acres,1150,sqft,None,3,2,None,None,"[]","[]","['Other']","['Central']",None,None,None,214009,519300,3099,,355000,USD,
91304,20930 Parthenia St UNIT 209,RECENTLY_SOLD,CONDO,34.227848,-118.58997,1976,0.7966,Acres,606,sqft,None,1,1,1,1,"['Laminate']","[]","['Central']","['Wall/Window Unit(s)']","['None']",None,None,306000,375100,1999,,367500,USD,
91303,6815 Remmet Ave UNIT 217,RECENTLY_SOLD,CONDO,34.194485,-118.60049,1986,1.3012,Acres,619,sqft,2,1,1,1,3,None,"[]","['Central']","['Central Air']","['None']","['Public Sewer']",None,273303,376900,2149,,368000,USD,
90047,6710 S Western Ave,RECENTLY_SOLD,LOT,33.978214,-118.308754,None,3898.62,Square Feet,None,None,None,None,None,None,None,None,"[]",None,None,None,None,None,43427,None,876,,358000,USD,
91356,18620 Hatteras St UNIT 211,RECENTLY_SOLD,CONDO,34.177036,-118.53929,1970,5.009986225895317,Acres,1129,sqft,None,3,2,None,None,"[]","[]","['Other']","['Central']",None,None,None,223313,501700,2999,,355000,USD,
91356,18620 Hatteras St UNIT 146,RECENTLY_SOLD,CONDO,34.176365,-118.539314,1970,5.01,Acres,911,sqft,1,2,2,2,1,None,"[]",None,"['Central Air']","['None']","['Public Sewer']",None,175067,381500,2400,,379000,USD,
90044,820 W 98th St,RECENTLY_SOLD,SINGLE_FAMILY,33.946865,-118.290054,1939,2827.044,Square Feet,876,sqft,None,2,1,1,1,"['Wood', 'Carpet', 'Tile']","[]","['Central']","['Central Air']","['None']",None,None,400609,409800,2796,,400000,USD,
91304,8601 International Ave UNIT 171,FOR_RENT,APARTMENT,34.22699,-118.60005,None,None,sqft,1078,sqft,None,3,2,2,None,"['Hardwood']",None,"['Baseboard', 'Forced Air']","['Central Air']",None,None,None,None,385200,3128,,2999,USD,
91316,5400 Newcastle Ave APT 46,RECENTLY_SOLD,CONDO,34.168633,-118.52358,1967,1.399,Acres,731,sqft,1,1,1,1,1,"['Tile', 'Wood']","[]","['Central']","['Central Air']","['None']","['Unknown']",None,262140,388300,1999,,385000,USD,
91040,10725 Nassau Ave,RECENTLY_SOLD,SINGLE_FAMILY,34.264053,-118.310776,1923,4030,Square Feet,942,sqft,0,1,1,1,1,None,"[]","['See Remarks']","['None']","['None']","['Public Sewer']",Composition,Tile,613836,None,3294,,400500,USD,
90057,525 S La Fayette Park Pl UNIT 114,RECENTLY_SOLD,CONDO,34.064037,-118.28321,1979,0.4888,Acres,602,sqft,None,1,1,1,None,"['Laminate']","[]","['Central']","['Central Air']","['None']",None,None,357041,380100,2034,,379000,USD,
91406,7307 Haskell Ave APT 6,RECENTLY_SOLD,CONDO,34.203136,-118.4755,1983,0.6016299357208448,Acres,750,sqft,1,1,1,1,1,None,"[]","['Central']","['Central Air']","['Living Room', 'Gas']","['Unknown']",None,302210,389500,2070,,385000,USD,
90059,827 E 112th St,RECENTLY_SOLD,SINGLE_FAMILY,33.933067,-118.25992,1964,3875,Square Feet,1225,sqft,None,2,2,None,None,"[]","[]","['Wall']","[]",None,None,None,274453,405600,2995,,396000,USD,
90744,1562 N Fries Ave,RECENTLY_SOLD,SINGLE_FAMILY,33.795025,-118.26574,1953,5227,Square Feet,874,sqft,None,2,1,0,None,"[]","[]","['Wall']","[]",None,None,None,51071,402900,2600,,400000,USD,
91356,18645 Hatteras St UNIT 139,RECENTLY_SOLD,CONDO,34.17793,-118.53989,1973,5.2835,Acres,605,sqft,1,1,1,1,2,None,"[]","['Central']","['Central Air']","['None']","['Sewer Paid']",None,157456,387200,1997,,377500,USD,
90003,10115 Avalon Blvd,RECENTLY_SOLD,SINGLE_FAMILY,33.944214,-118.26551,1925,4054,Square Feet,1348,sqft,None,2,1,None,None,"[]","[]","[]","[]",None,None,None,30420,554300,2892,,380000,USD,
91356,18645 Hatteras St UNIT 259,RECENTLY_SOLD,CONDO,34.17793,-118.53989,1973,5.2835,Acres,605,sqft,2,1,1,1,2,"['Laminate']","[]","['Central']","['Central Air']","['None']","['Public Sewer']",None,155107,405200,1997,,395000,USD,
91304,8601 International Ave UNIT 235,RECENTLY_SOLD,CONDO,34.227005,-118.600044,1971,5.4118,Acres,900,sqft,None,2,2,2,None,"['Laminate']","[]","['Central']","['Central Air']","['None']",None,None,177385,396000,2463,,395000,USD,
90015,645 W 9th St APT 405,RECENTLY_SOLD,CONDO,34.04581,-118.26058,2006,1.7158,Acres,660,sqft,1,0,1,1,1,"['Wood']","[]","['Central']","['Central Air']","['None']","['Public Sewer']",Common Roof,369713,404500,2441,,400000,USD,
90041,4946 Hartwick St,RECENTLY_SOLD,LOT,34.1369,-118.197205,None,10754.964,Square Feet,None,None,None,None,None,None,None,None,"[]",None,None,None,None,None,122985,None,3099,,399999,USD,
91356,5700 Etiwanda Ave UNIT 174,RECENTLY_SOLD,CONDO,34.175198,-118.53058,1973,6.4646,Acres,938,sqft,2,2,2,2,1,None,"['Slab']","['Central']","['Central Air']","['None']","['Sewer Paid']",Common Roof,444210,None,2600,,378000,USD,
91406,15946 Vanowen St UNIT 201,RECENTLY_SOLD,CONDO,34.193558,-118.48087,1984,0.38349403122130393,Acres,729,sqft,1,2,1,1,2,"['Carpet', 'Laminate', 'Tile']","[]","['Central']","['Central Air']","['Living Room']","['Public Sewer']",None,319556,388100,2500,,385000,USD,
91304,21054 Parthenia St UNIT 9,RECENTLY_SOLD,TOWNHOUSE,34.227856,-118.59271,1981,0.4564738292011019,Acres,1342,sqft,2,3,3,3,None,None,"[]","['Central']","['Central Air']","['Living Room', 'Master Bedroom']","['Public Sewer']",None,573240,394300,3449,,385000,USD,
91316,5412 Lindley Ave UNIT 204,RECENTLY_SOLD,CONDO,34.16904,-118.526505,1971,1.2867,Acres,1149,sqft,2,3,2,2,4,"['Wood']","[]","['Central']","['Central Air']","['None']","['Public Sewer']",None,340862,393700,3195,,385000,USD,
90046,1735 N Fuller Ave APT 422,RECENTLY_SOLD,CONDO,34.10281,-118.34944,1974,1.9840220385674932,Acres,513,sqft,None,None,1,1,None,"[]","[]","['Other']","['Central']",None,None,None,102824,396100,1565,,390000,USD,
90065,621 E Frontenac Ave,RECENTLY_SOLD,LOT,34.101845,-118.21319,None,9513.504,Square Feet,None,None,None,None,None,None,None,None,"[]",None,None,None,None,None,None,None,2945,,405000,USD,
91306,20225 Cohasset St UNIT 9,RECENTLY_SOLD,CONDO,34.207386,-118.57357,1971,1.892,Acres,890,sqft,0,2,1,1,1,"['Laminate']","[]","['Central']","['Central Air']","['None']","['Public Sewer']",None,294328,388600,2495,,385300,USD,
91367,5530 Owensmouth Ave APT 218,RECENTLY_SOLD,CONDO,34.17052,-118.60013,1987,1.6161,Acres,610,sqft,0,1,1,1,1,"['Carpet', 'Laminate']","[]","['Central']","['Central Air']","['Living Room', 'Gas']","['Public Sewer']",None,100597,384400,2100,,382500,USD,
90020,320 S Ardmore Ave APT 309,RECENTLY_SOLD,CONDO,34.06832,-118.301216,1973,1.0089,Acres,566,sqft,1,1,1,1,1,None,"[]",None,"['Wall/Window Unit(s)']","['None']","['Public Sewer']",None,328828,382700,1999,,385000,USD,
91306,7230 Kelvin Ave APT 8,PENDING,TOWNHOUSE,34.202076,-118.58573,1982,0.7678145087235997,Acres,1460,sqft,2,3,3,3,3,None,"[]","['Central']","['Central Air']","['Living Room']","['Public Sewer']",None,None,560000,3300,,529900,USD,
91304,8601 International Ave UNIT 154,RECENTLY_SOLD,CONDO,34.226994,-118.600044,1971,5.4101,Acres,900,sqft,0,2,2,2,1,"['Tile', 'Wood']","[]","['Central']","['Central Air']","['None']","['Public Sewer']",None,289811,401500,2463,,400000,USD,
90017,889 Francisco St UNIT 1807,RECENTLY_SOLD,CONDO,34.04769,-118.264694,2017,2.270684113865932,Acres,480,sqft,None,None,1,None,None,"[]","[]","['Other']","['Central']",None,None,None,494700,389800,1479,,380000,USD,
90731,910 W 26th St APT 2,RECENTLY_SOLD,CONDO,33.720856,-118.297104,1973,8954,Square Feet,601,sqft,1,1,1,1,2,"['Wood']","[]","['Central']","['Wall/Window Unit(s)']","['None']","['Unknown']",None,280914,386600,2149,,398000,USD,
90065,621 Frontenac Ave,RECENTLY_SOLD,HOME_TYPE_UNKNOWN,34.101902,-118.213264,None,9509,Square Feet,None,None,None,None,None,None,None,"[]","[]","[]","[]",None,None,None,289815,None,2945,,405000,USD,
90002,901 E 103rd St,RECENTLY_SOLD,SINGLE_FAMILY,33.943542,-118.25853,1944,6059,Square Feet,828,sqft,1,2,1,1,1,None,"[]",None,"['None']","['None']","['Public Sewer']",None,52186,None,2700,,400000,USD,
91356,18645 Hatteras St UNIT 165,RECENTLY_SOLD,CONDO,34.177746,-118.539566,1973,5.2835,Acres,605,sqft,2,1,1,1,1,None,"[]","['Central']","['Central Air']","['None']","['Public Sewer']",None,132790,377600,2027,,377000,USD,
91601,5143 Bakman Ave APT 309,RECENTLY_SOLD,CONDO,34.164074,-118.377846,1988,0.7358815426997245,Acres,664,sqft,1,1,1,1,3,"['See Remarks']","[]","['Central']","['Central Air']","['Family Room']","['Unknown']",None,380629,412300,2350,,405000,USD,
90031,200 N San Fernando Rd APT 211,RECENTLY_SOLD,CONDO,34.07666,-118.222374,1925,1.4501,Acres,670,sqft,1,0,1,1,None,"['Engineered Hardwood', 'Tile']","[]","['Central']","['Central Air']","['None']","['In Street']",None,285719,400700,2350,,399000,USD,
91331,13218 Mercer St,RECENTLY_SOLD,SINGLE_FAMILY,34.26965,-118.420425,1948,5326,Square Feet,540,sqft,0,2,1,1,1,"['Tile']","['None']","['None']","['None']","['None']","['Unknown']",Composition,198082,None,2500,,390000,USD,
90011,2512 Stanford Ave,RECENTLY_SOLD,SINGLE_FAMILY,34.02123,-118.25888,1908,2500,Square Feet,1176,sqft,0,2,1,1,1,"['Vinyl', 'Wood']","[]","['Wall Furnace']","['None']","['Living Room']","['Unknown']",Composition,Shingle,501472,411800,3052,,395000,USD,
90062,1503 W 47th St,RECENTLY_SOLD,MULTI_FAMILY,34.001263,-118.30359,1912,6359,Square Feet,1620,sqft,None,2,1,None,None,"['Hardwood']","[]","[]","[]",None,None,Slate,495912,411600,2968,,400000,USD,
90037,5724 South Broadway,RECENTLY_SOLD,SINGLE_FAMILY,33.99007,-118.277954,1921,3892,Square Feet,2939,sqft,None,6,2,None,None,"[]","[]","[]","[]",None,None,None,171310,755700,4440,,375000,USD,
90057,421 S La Fayette Park Pl APT 401,RECENTLY_SOLD,CONDO,34.06543,-118.28235,1971,0.9932000000000001,Acres,715,sqft,None,1,1,1,None,"['Laminate']","[]","['Central']","['Central Air']","['Living Room']",None,None,48667,387900,2250,,379000,USD,
90046,1730 Camino Palmero St APT 316,RECENTLY_SOLD,CONDO,34.102806,-118.34943,1974,1.9846,Acres,772,sqft,1,1,1,1,1,"['Carpet']","[]","['Central']","['Central Air']","['None']","['Public Sewer']",None,158389,392600,2517,,390000,USD,
91331,12601 Van Nuys Blvd UNIT 140,RECENTLY_SOLD,CONDO,34.277515,-118.40842,1989,4.8706,Acres,873,sqft,2,2,2,2,1,"['Laminate']","[]","['Central']","['Central Air']","['None']","['Other']",None,258797,386900,2500,,380000,USD,
90029,5164 Romaine St,FOR_SALE,SINGLE_FAMILY,34.08835,-118.304474,1910,2762,Square Feet,874,sqft,0,3,1,1,1,None,"[]",None,"['None']","['None']","['Public Sewer']",None,None,None,3462,,429900,USD,
90032,2525 Mallard St,RECENTLY_SOLD,SINGLE_FAMILY,34.076214,-118.19642,1927,3504,Square Feet,660,sqft,None,2,1,None,None,"[]","[]","['Wall']","[]",None,None,None,182341,586000,2650,,415000,USD,
90011,1415 E 52nd St,RECENTLY_SOLD,MULTI_FAMILY,33.99601,-118.2496,2007,5400,Square Feet,1310,sqft,None,3,3,None,None,"[]","[]","[]","[]",None,None,None,458537,630200,3427,,415000,USD,
90046,7250 Franklin Ave UNIT 711,RECENTLY_SOLD,CONDO,34.102917,-118.347466,1964,1.2289,Acres,536,sqft,None,0,1,1,None,"['Hardwood', 'Tile', 'Wood']","[]","['Central']","['Central Air']","['None']",None,None,440627,430200,2339,,425500,USD,
91356,18530 Hatteras St UNIT 301,RECENTLY_SOLD,CONDO,34.17708,-118.536804,1978,1.9468,Acres,980,sqft,0,2,2,2,3,"['Laminate', 'Vinyl']","[]","['Central']","['Central Air']","['None']","['Public Sewer']",See Remarks,294370,436400,2550,,425000,USD,
91405,7061 Kester Ave APT F,FOR_SALE,TOWNHOUSE,34.19922,-118.457954,1981,0.5237832874196511,Acres,1585,sqft,2,2,3,3,3,None,"[]","['Central']","['Central Air']","['Living Room']","['Public Sewer', 'Sewer Paid']",None,None,538900,3697,,519900,USD,
90044,5846 Denver Ave,RECENTLY_SOLD,SINGLE_FAMILY,33.988365,-118.283485,1911,5207,Square Feet,988,sqft,None,2,1,None,None,"[]","[]","[]","[]",None,None,None,366999,None,3011,,425000,USD,
91601,5143 Bakman Ave APT 420,RECENTLY_SOLD,CONDO,34.164074,-118.377846,1988,0.7358815426997245,Acres,639,sqft,2,1,1,1,4,"['Carpet', 'Tile', 'Wood']","[]","['Central']","['Central Air']","['Gas']","['Public Sewer']",None,181129,420300,2350,,420000,USD,
90011,1446 E 20th St,RECENTLY_SOLD,SINGLE_FAMILY,34.02081,-118.24791,1907,5662,Square Feet,1836,sqft,None,4,2,0,None,"[]","[]","['Gas']","['None']",None,"['Private Sewer']",None,146384,425600,3983,,416000,USD,
90012,267 S San Pedro St UNIT 610,RECENTLY_SOLD,CONDO,34.048016,-118.24298,2006,1.4842,Acres,970,sqft,None,2,2,2,None,"['Carpet', 'Tile']","[]","['Central']","['Central Air']","['Living Room']",None,None,483786,419900,2600,,410000,USD,
91340,10943 Laurel Canyon Blvd UNIT A15,RECENTLY_SOLD,CONDO,34.268677,-118.44379,1988,2.146,Acres,841,sqft,0,2,2,2,2,None,"[]","['Central']","['Central Air']","['None']","['Sewer Paid']",None,None,416600,2500,,415000,USD,
90013,825 E 4th St APT 109,RECENTLY_SOLD,CONDO,34.04383,-118.237175,1923,0.9913,Acres,660,sqft,None,0,1,1,6,"['Tile', 'Cement', 'Other']","[]","['Heat Pump', 'Wall', 'Other']","['Air Conditioning', 'Wall Unit(s)', 'Heat Pump']","['None']",None,None,347971,421900,2557,,425000,USD,
91402,9605 Van Nuys Blvd UNIT H,RECENTLY_SOLD,TOWNHOUSE,34.24496,-118.450905,1979,1.3338,Acres,1310,sqft,2,3,3,2,2,None,"[]","['Central']","['Central Air']","['Living Room']","['Public Sewer']",None,237336,426600,3234,,425000,USD,
91356,18433 Hatteras St UNIT 506,PENDING,CONDO,34.17814,-118.53487,1979,2.002,Acres,1147,sqft,0,2,2,2,1,None,"[]","['Central']","['Central Air']","['Living Room']","['Public Sewer']",None,None,500700,2898,,499900,USD,
91367,21550 Burbank Blvd APT 215,RECENTLY_SOLD,CONDO,34.17247,-118.59954,1987,3.1203,Acres,610,sqft,2,1,1,1,1,None,"[]","['Central']","['Central Air']","['Living Room']","['Public Sewer']",None,343575,416700,2149,,415000,USD,
90012,257 S Spring St APT 4L,RECENTLY_SOLD,CONDO,34.050682,-118.24711,1899,0.6616,Acres,650,sqft,1,0,1,1,5,"['Hardwood', 'Ceramic Tile']","[]","['Central']","['Central Air']","['None']",None,None,121000,417400,2314,,410000,USD,
91405,7321 Lennox Ave UNIT H1,RECENTLY_SOLD,CONDO,34.203167,-118.4467,1972,3.8125,Acres,1161,sqft,2,2,3,1,2,"['Tile', 'Wood']","[]","['Central']","['Central Air']","['None']","['Public Sewer']",None,345246,434700,2995,,425000,USD,
90003,409 E 104th St,RECENTLY_SOLD,SINGLE_FAMILY,33.942184,-118.26691,1923,5206,Square Feet,528,sqft,2,1,1,1,1,"['Wood']","['Permanent']","['Wall Furnace']","['Wall/Window Unit(s)']","['None']","['Public Sewer']",Shingle,76888,425200,1900,,425000,USD,
91311,9920 Jordan Ave UNIT 5,RECENTLY_SOLD,CONDO,34.250763,-118.60361,1986,0.5331037649219468,Acres,711,sqft,2,1,1,1,2,None,"[]","['Central']","['Central Air']","['None']","['Public Sewer']",None,326400,420100,2169,,420000,USD,
90014,215 W 7th St APT 1303,RECENTLY_SOLD,CONDO,34.04492,-118.25242,1911,0.3656106519742883,Acres,630,sqft,0,0,1,1,1,None,"[]","['Central']","['Electric']","['None']","['Public Sewer']",None,146000,434700,2394,,425000,USD,
90023,1304 Prado St,RECENTLY_SOLD,SINGLE_FAMILY,34.017113,-118.19396,1924,4800,Square Feet,748,sqft,0,2,1,1,1,None,"['Raised', 'Slab']",None,"['None']","['None']","['Public Sewer']",None,116291,None,2600,,410000,USD,
90057,525 S La Fayette Park Pl UNIT 207,RECENTLY_SOLD,CONDO,34.064037,-118.28321,1979,0.4888,Acres,715,sqft,None,1,1,1,1,"['Laminate']","[]","['Central']","['Air Conditioning']","['None']",None,None,332420,410200,2199,,410000,USD,
90046,1750 Camino Palmero St APT 232,RECENTLY_SOLD,CONDO,34.102806,-118.349434,1974,1.9840220385674932,Acres,784,sqft,None,1,1,None,None,"[]","[]","['Other']","['Central']",None,None,None,269767,566200,2528,,425000,USD,
91605,6850 Morella Ave APT 7,RECENTLY_SOLD,CONDO,34.195423,-118.38969,1966,0.36290174471992653,Acres,1065,sqft,0,2,1,1,1,"['Tile', 'Wood']","[]","['Forced Air']","['Wall/Window Unit(s)']","['None']","['Public Sewer']",None,96426,421500,2850,,420000,USD,
90003,318 E 73rd St,RECENTLY_SOLD,SINGLE_FAMILY,33.973583,-118.2688,1922,5382,Square Feet,816,sqft,None,2,1,None,None,"[]","[]","['Wall']","[]",None,None,None,22794,565700,2614,,425000,USD,
91405,13747 Vanowen St APT 105,RECENTLY_SOLD,CONDO,34.194267,-118.43301,1977,0.3609504132231405,Acres,920,sqft,0,2,2,2,2,"['Vinyl']","[]","['Wall Furnace']","['Wall/Window Unit(s)']","['None']","['Public Sewer']",None,308404,419100,2714,,419000,USD,
90062,1552 W Vernon Ave,FOR_SALE,SINGLE_FAMILY,34.003426,-118.30534,1920,5871.888,Square Feet,1774,sqft,None,4,2,2,1,"['Laminate']","[]","['Central']","['Central Air']","['Decorative']",None,None,None,977000,4337,,920000,USD,
90013,312 W 5th St APT 902,RECENTLY_SOLD,CONDO,34.048035,-118.25125,1923,0.6299816345270891,Acres,890,sqft,0,1,1,1,13,"['Laminate', 'Tile']","[]","['Electric']","['Electric']","['None']","['Public Sewer']",None,334976,417400,2500,,410000,USD,
90015,645 W 9th St APT 407,RECENTLY_SOLD,CONDO,34.045635,-118.260895,2006,1.7158,Acres,660,sqft,None,1,1,1,None,"['Hardwood']","[]","['Central']","['Central Air']","['None']",None,None,389564,431300,2576,,422500,USD,
90061,244 W 118th Pl,RECENTLY_SOLD,SINGLE_FAMILY,33.925304,-118.27768,1921,5198,Square Feet,840,sqft,0,3,1,1,1,None,"[]",None,"['None']","['None']","['Public Sewer']",None,30758,431100,2999,,425000,USD,
90062,1516 W 58th St,RECENTLY_SOLD,LOT,33.989475,-118.302826,None,4281.948,Square Feet,None,None,None,None,None,None,None,None,"[]",None,None,None,None,None,102614,None,2600,,425000,USD,
90020,525 S Ardmore Ave APT 350,RECENTLY_SOLD,CONDO,34.064713,-118.30198,1973,1.6867,Acres,580,sqft,None,1,1,1,None,"['Laminate']","[]","['Wall']","['Wall Unit(s)']","['None']",None,None,401364,415400,2050,,415000,USD,
91606,6301 Coldwater Canyon Ave UNIT 21,RECENTLY_SOLD,CONDO,34.18504,-118.41443,1960,2.3456,Acres,1136,sqft,None,2,1,1,None,"['Laminate', 'Ceramic Tile']","[]","['Central']","['Central Air']","['None']",None,None,300072,428200,3099,,420420,USD,
90011,1516 E 50th St,PENDING,SINGLE_FAMILY,33.997246,-118.2471,1905,5402,Square Feet,832,sqft,0,1,1,1,1,None,"[]",None,"['None']","['None']","['Public Sewer']",None,None,591900,2199,,575000,USD,
91601,5143 Bakman Ave APT 412,RECENTLY_SOLD,CONDO,34.164074,-118.377846,1988,0.7358815426997245,Acres,636,sqft,1,1,1,1,4,"['Carpet', 'Tile']","[]","['Central', 'Forced Air', 'Natural Gas']","['Central Air', 'Gas']","['Living Room']","['Unknown']",None,408000,410100,2284,,410000,USD,
91356,5700 Etiwanda Ave UNIT 167,RECENTLY_SOLD,CONDO,34.17527,-118.5298,1973,6.4667,Acres,938,sqft,0,2,2,2,1,"['Laminate']","[]","['Central']","['Central Air']","['None']","['Public Sewer']",None,377265,425000,2600,,415000,USD,
91604,4353 Colfax Ave UNIT 30,RECENTLY_SOLD,CONDO,34.14899,-118.38836,1961,2.0849,Acres,769,sqft,1,1,1,1,2,"['Wood']","[]","['Natural Gas', 'Wall Furnace']","['Wall/Window Unit(s)']","['None']","['Unknown']",Composition,324010,421600,2614,,420000,USD,
91605,7924 Laurel Canyon Blvd UNIT 18,RECENTLY_SOLD,CONDO,34.214638,-118.39615,1974,1.1359,Acres,857,sqft,0,2,1,1,1,None,"['None']","['Central']","['Central Air']","['None']","['Public Sewer']",Common Roof,329000,418800,2500,,410000,USD,
90003,210 E 77th St,RECENTLY_SOLD,SINGLE_FAMILY,33.969383,-118.271385,1925,5100,Square Feet,2544,sqft,None,8,4,None,None,"[]","[]","['Wall']","[]",None,None,None,28912,750500,6563,,407000,USD,
90012,267 S San Pedro St UNIT 307,RECENTLY_SOLD,CONDO,34.048016,-118.24298,2006,1.4818,Acres,1060,sqft,None,2,2,2,6,"['Carpet', 'Ceramic Tile', 'Mixed']","[]","['Central']","['Central Air']","['None']",None,None,493322,409300,3128,,409000,USD,
91335,7115 Etiwanda Ave UNIT 5,RECENTLY_SOLD,TOWNHOUSE,34.199776,-118.53219,1981,0.5564279155188246,Acres,1102,sqft,2,2,2,2,3,"['Laminate']","[]","['Central']","['Central Air']","['Living Room']","['Public Sewer']",None,387578,410100,2850,,410000,USD,
90013,420 S San Pedro St APT 213,RECENTLY_SOLD,CONDO,34.04506,-118.24272,1922,1.7542,Acres,780,sqft,1,0,1,1,6,"['Hardwood']","[]","['Central']","['Central Air']","['None']","['In Street']",None,449000,430100,2299,,420000,USD,
91331,11150 Glenoaks Blvd UNIT 210,RECENTLY_SOLD,CONDO,34.273388,-118.40958,1990,0.7007805325987144,Acres,994,sqft,2,2,2,2,None,None,"[]","['Central']","['Central Air']","['None']","['Public Sewer']",None,300748,451000,2749,,440000,USD,
91601,11439 Cumpston St,RECENTLY_SOLD,SINGLE_FAMILY,34.16989,-118.38041,1940,5662,Square Feet,828,sqft,None,2,1,1,None,"['Hardwood']","[]","['Wall']","[]",None,None,None,48481,757900,2995,,430000,USD,
90015,1119 Albany St APT 302,RECENTLY_SOLD,CONDO,34.045734,-118.27328,1983,None,sqft,926,sqft,1,1,1,1,None,None,"[]","['Has Heating (Unspecified Type)']",None,"['None']","['Public Sewer']",None,101727,445900,2500,,442000,USD,
90744,1258 Lakme Ave,RECENTLY_SOLD,SINGLE_FAMILY,33.78855,-118.2596,1930,8450,Square Feet,1867,sqft,None,3,2,1,None,"['Carpet', 'Hardwood']","[]","['Wall', 'Gas']","[]",None,None,Tile,93389,725600,4121,,440000,USD,
91316,5334 Lindley Ave UNIT 208,RECENTLY_SOLD,CONDO,34.16791,-118.526505,1970,2.1427,Acres,823,sqft,2,1,1,1,3,None,"[]","['Central']","['Central Air']","['None']","['Public Sewer']",None,158269,433800,2268,,430000,USD,
91367,5550 Owensmouth Ave APT 119,RECENTLY_SOLD,CONDO,34.172215,-118.60061,1987,1.555,Acres,610,sqft,2,1,1,1,3,"['Vinyl']","[]","['Central']","['Central Air']","['Living Room']","['Private Sewer']",None,338215,441600,2149,,440000,USD,
90001,8416 Wadsworth Ave,RECENTLY_SOLD,SINGLE_FAMILY,33.962353,-118.25833,1925,3466,Square Feet,976,sqft,None,3,2,None,None,"[]","[]","['Wall']","[]",None,None,None,196274,592300,3300,,440000,USD,
90001,722 E 80th St,FOR_SALE,SINGLE_FAMILY,33.966232,-118.262115,1928,5100,Square Feet,1435,sqft,2,3,2,2,1,None,"[]",None,"['Central Air']","['Master Bedroom']","['Public Sewer']",None,None,684900,3536,,670000,USD,
90057,400 S La Fayette Park Pl APT 314,RECENTLY_SOLD,CONDO,34.065247,-118.281105,1970,0.6514,Acres,886,sqft,None,1,2,2,3,"['Vinyl']","[]","['Central']","['Central Air']","['Living Room']",None,None,471000,441100,2814,,430000,USD,
91307,22540 Haynes St,RECENTLY_SOLD,SINGLE_FAMILY,34.18944,-118.61817,1959,7597,Square Feet,1570,sqft,None,4,2,None,None,"[]","[]","['Other']","[]",None,None,None,655231,868100,4528,,436000,USD,
91311,21500 Lassen St SPACE 70,RECENTLY_SOLD,MANUFACTURED,34.24272,-118.595184,2022,None,sqft,1640,sqft,0,4,3,3,1,None,"[]",None,"['Central Air']",None,"['Public Sewer']",None,18161,449200,1714,,439000,USD,
91344,16940 Chatsworth St UNIT 214,RECENTLY_SOLD,CONDO,34.26434,-118.50143,1991,0.6641,Acres,1114,sqft,None,2,2,2,None,"['Carpet', 'Tile', 'Other', 'Mixed']","[]","['Central']","['Central Air']","['Living Room']",None,None,159519,450100,2850,,445000,USD,
91406,7135 Firmament Ave UNIT 7,RECENTLY_SOLD,CONDO,34.200153,-118.47283,1980,1.6906,Acres,961,sqft,2,2,2,2,1,None,"[]","['Central']","['Central Air']","['Living Room', 'Gas', 'Gas Starter', 'Wood Burning', 'Raised Hearth']","['Unknown']",None,386312,452800,2635,,448900,USD,
90731,811 W Oliver St,RECENTLY_SOLD,SINGLE_FAMILY,33.746567,-118.29467,1924,4801,Square Feet,982,sqft,0,3,1,1,1,None,"[]",None,"['None']","['None']","['Public Sewer']",None,161345,616700,3499,,445000,USD,
90003,5855 S Figueroa St,RECENTLY_SOLD,MULTI_FAMILY,33.988148,-118.28305,None,5401,Square Feet,1528,sqft,None,2,2,None,None,"[]","[]","[]","[]",None,None,None,220269,442300,2100,,440000,USD,
91352,10201 La Tuna Canyon Rd #53,RECENTLY_SOLD,LOT,34.23516,-118.35302,None,0.5328512396694215,Acres,None,None,None,None,None,None,None,None,"[]",None,None,None,None,None,None,None,None,,444000,USD,
91342,13470 Herron St,RECENTLY_SOLD,SINGLE_FAMILY,34.315086,-118.42616,1954,5702.004,Square Feet,737,sqft,None,2,1,1,1,"['Other']","[]","['Other']","['Other']","['None']",None,None,51305,456000,2529,,446250,USD,
90020,435 S Virgil Ave APT 121,RECENTLY_SOLD,CONDO,34.065655,-118.287476,1986,1.0128,Acres,613,sqft,2,1,1,1,3,None,"[]","['Central']","['Wall/Window Unit(s)']","['None']","['Public Sewer']",None,415000,453300,2100,,443000,USD,
91607,12720 Burbank Blvd UNIT 218,RECENTLY_SOLD,CONDO,34.17182,-118.41066,1970,1.9815,Acres,785,sqft,1,1,1,1,1,"['Carpet', 'Tile']","[]","['Central']","['Central Air']","['Living Room']","['Public Sewer']",None,333535,436700,2411,,430000,USD,
91367,5540 Owensmouth Ave APT 221,RECENTLY_SOLD,CONDO,34.17177,-118.60065,1987,1.4141,Acres,610,sqft,0,1,1,1,3,None,"[]","['Central']","['Central Air']","['Living Room']","['Unknown']",None,346885,431800,2149,,430000,USD,
91331,11150 Glenoaks Blvd UNIT 76,RECENTLY_SOLD,CONDO,34.273388,-118.40958,1988,3.9128,Acres,854,sqft,2,2,2,2,1,"['Wood']","[]","['Central']","['Central Air']","['None']","['Public Sewer']",None,334271,437200,2500,,429000,USD,
90034,3734 S Canfield Ave APT 108,RECENTLY_SOLD,CONDO,34.02763,-118.395134,1972,0.44770000000000004,Acres,643,sqft,None,1,1,1,1,"['Vinyl Plank']","[]","['Wall Electric']","['Wall Unit(s)']","['None']",None,Common Roof,313493,450900,2700,,440000,USD,
90028,1351 N Orange Dr APT 112,RECENTLY_SOLD,CONDO,34.095863,-118.341934,1977,0.5456152433425161,Acres,589,sqft,1,1,1,1,3,"['Wood']","[]","['Electric']","['Electric']","['None']","['Public Sewer']",None,341629,447900,2194,,440000,USD,
91342,15455 Glenoaks Blvd SPACE 78,RECENTLY_SOLD,MANUFACTURED,34.326786,-118.46671,1980,None,sqft,2584,sqft,2,2,2,1,1,"['Laminate']","['Pier Jacks', 'Seismic Tie Down']","['Forced Air']","['Central Air']",None,"['Public Sewer']",Asphalt,Shingle,None,435300,1716,,435000,USD,
90006,2311 W 10th St UNIT 306,RECENTLY_SOLD,CONDO,34.053265,-118.28213,2009,0.3116391184573003,Acres,920,sqft,None,2,2,0,None,"['Laminate']","[]","['Forced air']","['Central']",None,None,None,493390,435800,2722,,430000,USD,
91316,5403 Newcastle Ave APT 70,RECENTLY_SOLD,CONDO,34.168633,-118.52513,1967,1.3984,Acres,923,sqft,0,2,2,2,1,None,"[]","['Central']","['None']","['None']","['Public Sewer']",None,132929,448700,2500,,445000,USD,
91604,12841 Woodbridge St UNIT 11,RECENTLY_SOLD,CONDO,34.14856,-118.41304,1965,0.6471992653810835,Acres,974,sqft,None,2,1,1,None,"[]","[]","['Other', 'Gas']","['Central']",None,None,Asphalt,192023,444600,2978,,434000,USD,
91367,5565 Canoga Ave APT 303,RECENTLY_SOLD,CONDO,34.171787,-118.59972,1987,None,sqft,610,sqft,2,1,1,1,3,"['Carpet']","[]","['Central']","['Central Air']","['Family Room']","['Public Sewer']",None,410000,443900,2197,,440000,USD,
91411,14607 Erwin St UNIT 115,RECENTLY_SOLD,CONDO,34.183887,-118.45128,1980,0.6430211202938476,Acres,1012,sqft,2,2,2,2,1,None,"[]","['Central', 'Forced Air']","['Central Air']","['Living Room']","['Public Sewer']",None,147942,445000,2749,,435000,USD,
90011,1626-1628 E 32nd St,RECENTLY_SOLD,MULTI_FAMILY,34.011597,-118.24507,1905,5004,Square Feet,1,sqft,1,4,2,None,None,None,"[]","['Wall Furnace']","['None']","['None']","['Public Sewer']",None,None,450300,1400,,440000,USD,
90744,25633 Pine Creek Ln,RECENTLY_SOLD,CONDO,33.791824,-118.28377,1980,5.158011937557392,Acres,919,sqft,None,2,1,None,None,"[]","[]","['Other']","['Central']",None,None,None,207398,458500,2600,,449000,USD,
90015,645 W 9th St APT 401,FOR_RENT,CONDO,34.045834,-118.26061,2006,None,sqft,700,sqft,None,1,1,1,7,"['Hardwood', 'Tile']",None,"['Central']","['Central Air', 'Ceiling Fan']",None,None,None,None,438900,2465,,2500,USD,
90272,501 Palisades Dr APT 302,RECENTLY_SOLD,CONDO,34.04485,-118.55304,1987,6.6546,Acres,593,sqft,None,1,1,1,3,"['Hardwood']","[]","['Central']","['Ceiling Fan(s)', 'Central Air']","['None']",None,None,200395,450200,3895,,444322,USD,
91306,20134 Leadwell St UNIT 313,RECENTLY_SOLD,CONDO,34.202847,-118.57231,1971,4.9435,Acres,884,sqft,0,2,2,2,1,None,"[]","['Central']","['Central Air']","['See Remarks']","['Public Sewer']",None,106685,450500,2575,,440000,USD,
91340,10943 Laurel Canyon Blvd #8,RECENTLY_SOLD,CONDO,34.26865,-118.44381,1988,2.146,Acres,797,sqft,None,2,2,2,None,"['Laminate']","[]","['Central']","['Central Air']","['None']",None,None,400000,437100,2500,,437000,USD,
90011,1626 E 32nd St,RECENTLY_SOLD,MULTI_FAMILY,34.0116,-118.24508,1905,5005,Square Feet,1132,sqft,None,4,2,0,None,"[]","[]","[]","[]",None,"['Public Sewer']",None,394681,261700,1400,,440000,USD,
90731,784 W 5th St,RECENTLY_SOLD,SINGLE_FAMILY,33.739937,-118.29408,1920,5009,Square Feet,960,sqft,None,2,1,0,None,"[]","[]","['Other']","['None']",None,None,Other,466685,435900,2550,,430000,USD,
91331,11150 Glenoaks Blvd UNIT 24,RECENTLY_SOLD,CONDO,34.273388,-118.40958,1988,3.9128,Acres,1017,sqft,2,2,2,2,2,None,"[]","['Central']","['Central Air']","['None']","['Public Sewer', 'Sewer Paid']",None,146423,435000,2796,,429950,USD,
91367,5530 Owensmouth Ave APT 315,FOR_RENT,APARTMENT,34.170834,-118.60023,None,None,sqft,740,sqft,None,1,1,1,None,None,None,"['Forced Air']","['Central Air']",None,None,None,None,443500,2350,,2400,USD,
90011,1177 E 54th St,RECENTLY_SOLD,SINGLE_FAMILY,33.994175,-118.25465,1902,5118,Square Feet,1484,sqft,0,4,2,1,1,None,"[]",None,"['None']","['None']","['Public Sewer']",None,32446,None,3695,,440000,USD,
90210,LOT 133,RECENTLY_SOLD,LOT,34.121796,-118.432556,None,0.5302112029384757,Acres,None,None,None,None,None,None,None,"[]","[]","[]","[]",None,None,None,618584,None,8500,,448000,USD,
90047,1535 W 70th St,RECENTLY_SOLD,SINGLE_FAMILY,33.976433,-118.30364,1926,4681,Square Feet,1048,sqft,1,2,1,1,1,None,"[]",None,"['None']","['None']","['Public Sewer']",None,111478,494100,3099,,451500,USD,
90012,100 S Alameda St UNIT 357,RECENTLY_SOLD,CONDO,34.047997,-118.23751,2005,3.1684,Acres,735,sqft,1,1,1,1,4,"['Carpet', 'Laminate']","[]","['Central']","['Central Air']","['None']","['Public Sewer']",None,517000,466000,2350,,462500,USD,
90744,25633 Pine Creek Ln #35,RECENTLY_SOLD,CONDO,33.79182,-118.28376,1980,5.1592,Acres,919,sqft,0,2,1,1,1,"['Tile', 'Wood']","[]","['Central']","['None']","['Family Room']","['Public Sewer']",None,None,459900,2600,,449000,USD,
91307,7225 Shoup Ave APT 32,RECENTLY_SOLD,TOWNHOUSE,34.201683,-118.61517,1980,1.8213,Acres,1163,sqft,None,2,2,2,2,"['Mixed']","[]","['Central']","['Central Air']","['Family Room', 'Other']",None,None,297134,453900,3043,,450000,USD,
91306,7211 Cozycroft Ave UNIT 26,RECENTLY_SOLD,CONDO,34.20157,-118.58242,1984,1.38,Acres,1032,sqft,2,2,2,2,1,None,"[]",None,"['Central Air']","['Living Room']","['Unknown']",None,207390,456200,2684,,450000,USD,
90011,1246 E 35th St,RECENTLY_SOLD,SINGLE_FAMILY,34.011765,-118.25298,1906,4601,Square Feet,1278,sqft,0,2,1,1,1,None,"['Permanent']","['Fireplace(s)']","['None']","['Living Room']","['Public Sewer']",None,147189,450100,3036,,450000,USD,
91601,11643 Chandler Blvd APT 101,RECENTLY_SOLD,CONDO,34.16892,-118.38593,1981,0.4682966023875115,Acres,1234,sqft,None,2,3,None,None,"[]","[]","['Other']","['Central']",None,None,None,263936,None,3277,,455000,USD,
